[
  {
    "title": "[룸/풀사롱] 강남베리앤굿",
    "url": "https://dkxm8.com/profile_popup.php?idx=778917&gubun=1",
    "description": "서울 강남",
    "hours": "PM 18:00 ~ AM 06:00",
    "phone": "010-5939-1509",
    "kakao_id": "",
    "telegram_id": "",
    "thumbnail": "https://dkxm8.com/data/file/main/1728182871_Q9VT6Yn8_93b7daa6088bf3d18d0d824b1df8488b5c461242.gif"
  },
  {
    "title": "[룸/풀사롱] 매직미러풀싸롱",
    "url": "https://dkxm8.com/profile_popup.php?idx=1041424&gubun=1",
    "description": "❤️강남 야구장❤매직미러 풀❤",
    "hours": "❤️PM18:00 ~AM06:00❤",
    "phone": "❤️010-4885-3541❤️",
    "kakao_id": "",
    "telegram_id": "",
    "thumbnail": "https://dkxm8.com/data/file/main/1728182447_731lVfRP_e8d0911c8fed9f479515c409665482dd60c0ad3a.jpg"
  },
  {
    "title": "[룸/풀사롱] 필독",
    "url": "https://dkxm8.com/profile_popup.php?idx=648318&gubun=1",
    "description": "❌ 한번만 ❌읽어주세요✅",
    "hours": "하이퍼블릭",
    "phone": "010-9567-5872",
    "kakao_id": "",
    "telegram_id": "",
    "thumbnail": "https://dkxm8.com/data/file/main/1728182447_8jEqZw7p_53951239b23fa09f2a4f67fa898a64925ce06283.jpg"
  },
  {
    "title": "[건마] 지중해스웨디시",
    "url": "https://dkxm8.com/profile_popup.php?idx=1311519&gubun=1",
    "description": "강동구 천호동",
    "hours": "오전11:00~오전5:00",
    "phone": "010-7776-6885",
    "kakao_id": "",
    "telegram_id": "",
    "thumbnail": "https://dkxm8.com/data/file/main/1502831921_w8ZBUq5E_391d1b6c574507e89aeb27035721bd011e044b97.jpg"
  },
  {
    "title": "[휴게텔] 단밤",
    "url": "https://dkxm8.com/profile_popup.php?idx=1166080&gubun=1",
    "description": "서울 관악 신림",
    "hours": "AM 11:30 ~ AM 05:30",
    "phone": "010-7357-2912",
    "kakao_id": "",
    "telegram_id": "",
    "thumbnail": "https://dkxm8.com/data/file/main/2699961699_SrnWGZby_8368b36080c23faec0eeacb56c0985b05711d890.jpg"
  },
  {
    "title": "[휴게텔] 착한가게",
    "url": "https://dkxm8.com/profile_popup.php?idx=1347765&gubun=1",
    "description": "서울 신림",
    "hours": "AM 11:30 - AM 06:00",
    "phone": "010-6555-4804",
    "kakao_id": "",
    "telegram_id": "",
    "thumbnail": "https://dkxm8.com/data/file/main/1728182871_dTIEKuCA_1d6d3c0e487c40f9495411de5479e7d32d07cb8a.jpg"
  },
  {
    "title": "[건마] 아우라스웨디시",
    "url": "https://dkxm8.com/profile_popup.php?idx=1300679&gubun=1",
    "description": "서울시 도봉구 창동",
    "hours": "오전11시~오전5시",
    "phone": "010-8051-5885",
    "kakao_id": "",
    "telegram_id": "",
    "thumbnail": "https://dkxm8.com/data/file/main/1502831880_F5TRSk38_9e3827596189062d2ea59d0d2e0941bb61f165d7.jpg"
  },
  {
    "title": "[건마] 클로버스웨디",
    "url": "https://dkxm8.com/profile_popup.php?idx=1179889&gubun=1",
    "description": "동대문구 청량리",
    "hours": "AM 11:00 ~ AM 05:00",
    "phone": "010-5731-1012",
    "kakao_id": "",
    "telegram_id": "",
    "thumbnail": "https://dkxm8.com/data/file/main/1728182871_Ij2k0eyC_ab932cc912b7764aaa64ef710dd4ddfeabf1ea3a.jpg"
  },
  {
    "title": "[건마] 마포S스파",
    "url": "https://dkxm8.com/profile_popup.php?idx=1199300&gubun=1",
    "description": "서울 마포",
    "hours": "AM 11:00 ~ AM 05:00",
    "phone": "010-7553-3678",
    "kakao_id": "",
    "telegram_id": "",
    "thumbnail": "https://dkxm8.com/data/file/main/1728182871_czvSM40s_b62ad7d366c1fad7b9d8cbe527bde6d816796b2e.jpg"
  },
  {
    "title": "[건마] 모카스파",
    "url": "https://dkxm8.com/profile_popup.php?idx=996112&gubun=1",
    "description": "송파구 방이동 먹자골목",
    "hours": "24시간 연중무휴",
    "phone": "010-6531-9531",
    "kakao_id": "",
    "telegram_id": "",
    "thumbnail": "https://dkxm8.com/data/file/main/1502831921_6JsOAf0h_a2713b7eff14071c3e6b8d82088793a0c8787dcd.jpg"
  },
  {
    "title": "[건마] 잠실인스타스파",
    "url": "https://dkxm8.com/profile_popup.php?idx=1299402&gubun=1",
    "description": "전원한국매니저",
    "hours": "AM 9:00 ~ AM 06:00",
    "phone": "010-4865-6011",
    "kakao_id": "",
    "telegram_id": "",
    "thumbnail": "https://dkxm8.com/data/file/main/1502831880_CU9hduRL_826c830ebf3554140dd12448e566661f3653c252.jpg"
  },
  {
    "title": "[건마] 당산M스파",
    "url": "https://dkxm8.com/profile_popup.php?idx=649297&gubun=1",
    "description": "당산역 2번출구 전방.",
    "hours": "24시간 연중 무휴",
    "phone": "010-5736-8477",
    "kakao_id": "",
    "telegram_id": "",
    "thumbnail": "https://dkxm8.com/data/file/main/1728182871_2EcwBOAW_7911b4e5b9f53e3a92ec292450a2c381b9f55ecd.gif"
  },
  {
    "title": "[오피스텔] 산소",
    "url": "https://dkxm8.com/profile_popup.php?idx=1048604&gubun=1",
    "description": "광주역 부근",
    "hours": "PM 02:00 ~ AM 05:00",
    "phone": "010-8276-2618",
    "kakao_id": "",
    "telegram_id": "",
    "thumbnail": "https://dkxm8.com/data/file/main/1728182447_h6RJzHAi_f6ad54266a8b23235cc6b0111fec5001d2c0a947.jpg"
  },
  {
    "title": "[건마] 다이아스웨디시",
    "url": "https://dkxm8.com/profile_popup.php?idx=1145187&gubun=1",
    "description": "남양주 다산동",
    "hours": "AM 11:00 ~ AM 06:00",
    "phone": "010-8050-0337",
    "kakao_id": "",
    "telegram_id": "",
    "thumbnail": "https://dkxm8.com/data/file/main/1728182871_FSTDnGUC_d888c09322549d957a766548a1b7dc3b039fef33.jpg"
  },
  {
    "title": "[휴게텔] 새콤달콤",
    "url": "https://dkxm8.com/profile_popup.php?idx=154074&gubun=1",
    "description": "수원시청역 부근",
    "hours": "12:00 ~ 05:00",
    "phone": "010-8276-2111",
    "kakao_id": "",
    "telegram_id": "",
    "thumbnail": "https://dkxm8.com/data/file/main/2699961699_pI643sOl_7546cae07ddd6dfca19d5863b65c058630142420.jpg"
  },
  {
    "title": "[휴게텔] 퍼스트",
    "url": "https://dkxm8.com/profile_popup.php?idx=1348710&gubun=1",
    "description": "❤️수원역 복귀 이벤트❤️",
    "hours": "13:00 ~ 05:00",
    "phone": "010-7926-6660",
    "kakao_id": "",
    "telegram_id": "",
    "thumbnail": "https://dkxm8.com/data/file/main/1332623112_v1Ld2te9_90d9e37dd23987c1bec940850081ef54d718e90b.jpg"
  },
  {
    "title": "[휴게텔] YSL생로랑",
    "url": "https://dkxm8.com/profile_popup.php?idx=1303475&gubun=1",
    "description": "⭐수원⭐와꾸파 사이즈 보장⭐",
    "hours": "PM 13:00 ~ AM 05:00",
    "phone": "010-5901-3587",
    "kakao_id": "",
    "telegram_id": "",
    "thumbnail": "https://dkxm8.com/data/file/main/1332623114_gzZhnP0X_ab042e13ccb8517e6a0b7448b9573ab64a0d9559.jpg"
  },
  {
    "title": "[건마] 여왕",
    "url": "https://dkxm8.com/profile_popup.php?idx=648970&gubun=1",
    "description": "⏺안성⏺내리⏺농협근처⏺",
    "hours": "24시간",
    "phone": "010-2679-1555",
    "kakao_id": "",
    "telegram_id": "",
    "thumbnail": "https://dkxm8.com/data/file/main/1728182871_vX1NOk3a_a5765b4d387e412529d7c9fffeef0cabe5f8349d.jpg"
  }
]