[
  {
    "title": "[룸/풀사롱] 강남베리앤굿",
    "url": "https://dkxm8.com/profile_popup.php?idx=778917&gubun=1",
    "description": "서울 강남",
    "hours": "PM 18:00 ~ AM 06:00",
    "phone": "010-5939-1509",
    "kakao_id": "",
    "telegram_id": "",
    "thumbnail": "https://dkxm8.com/data/file/main/1728182871_Q9VT6Yn8_93b7daa6088bf3d18d0d824b1df8488b5c461242.gif"
  },
  {
    "title": "[룸/풀사롱] 매직미러풀싸롱",
    "url": "https://dkxm8.com/profile_popup.php?idx=1041424&gubun=1",
    "description": "❤️강남 야구장❤매직미러 풀❤",
    "hours": "❤️PM18:00 ~AM06:00❤",
    "phone": "❤️010-4885-3541❤️",
    "kakao_id": "",
    "telegram_id": "",
    "thumbnail": "https://dkxm8.com/data/file/main/1728182447_731lVfRP_e8d0911c8fed9f479515c409665482dd60c0ad3a.jpg"
  },
  {
    "title": "[룸/풀사롱] 필독",
    "url": "https://dkxm8.com/profile_popup.php?idx=648318&gubun=1",
    "description": "❌ 한번만 ❌읽어주세요✅",
    "hours": "하이퍼블릭",
    "phone": "010-9567-5872",
    "kakao_id": "",
    "telegram_id": "",
    "thumbnail": "https://dkxm8.com/data/file/main/1728182447_8jEqZw7p_53951239b23fa09f2a4f67fa898a64925ce06283.jpg"
  },
  {
    "title": "[건마] 지중해스웨디시",
    "url": "https://dkxm8.com/profile_popup.php?idx=1311519&gubun=1",
    "description": "강동구 천호동",
    "hours": "오전11:00~오전5:00",
    "phone": "010-7776-6885",
    "kakao_id": "",
    "telegram_id": "",
    "thumbnail": "https://dkxm8.com/data/file/main/1502831921_w8ZBUq5E_391d1b6c574507e89aeb27035721bd011e044b97.jpg"
  },
  {
    "title": "[휴게텔] 단밤",
    "url": "https://dkxm8.com/profile_popup.php?idx=1166080&gubun=1",
    "description": "서울 관악 신림",
    "hours": "AM 11:30 ~ AM 05:30",
    "phone": "010-7357-2912",
    "kakao_id": "",
    "telegram_id": "",
    "thumbnail": "https://dkxm8.com/data/file/main/2699961699_SrnWGZby_8368b36080c23faec0eeacb56c0985b05711d890.jpg"
  },
  {
    "title": "[휴게텔] 착한가게",
    "url": "https://dkxm8.com/profile_popup.php?idx=1347765&gubun=1",
    "description": "서울 신림",
    "hours": "AM 11:30 - AM 06:00",
    "phone": "010-6555-4804",
    "kakao_id": "",
    "telegram_id": "",
    "thumbnail": "https://dkxm8.com/data/file/main/1728182871_dTIEKuCA_1d6d3c0e487c40f9495411de5479e7d32d07cb8a.jpg"
  },
  {
    "title": "[건마] 아우라스웨디시",
    "url": "https://dkxm8.com/profile_popup.php?idx=1300679&gubun=1",
    "description": "서울시 도봉구 창동",
    "hours": "오전11시~오전5시",
    "phone": "010-8051-5885",
    "kakao_id": "",
    "telegram_id": "",
    "thumbnail": "https://dkxm8.com/data/file/main/1502831880_F5TRSk38_9e3827596189062d2ea59d0d2e0941bb61f165d7.jpg"
  }
]