[
  {
    "title": "[룸/풀사롱] 강남베리앤굿",
    "url": "https://dkxm8.com/profile_popup.php?idx=778917&gubun=1",
    "description": "서울 강남",
    "hours": "PM 18:00 ~ AM 06:00",
    "phone": "010-5939-1509",
    "kakao_id": "",
    "telegram_id": "",
    "thumbnail": "https://dkxm8.com/data/file/main/1728182871_Q9VT6Yn8_93b7daa6088bf3d18d0d824b1df8488b5c461242.gif"
  },
  {
    "title": "[룸/풀사롱] 매직미러풀싸롱",
    "url": "https://dkxm8.com/profile_popup.php?idx=1041424&gubun=1",
    "description": "❤️강남 야구장❤매직미러 풀❤",
    "hours": "❤️PM18:00 ~AM06:00❤",
    "phone": "❤️010-4885-3541❤️",
    "kakao_id": "",
    "telegram_id": "",
    "thumbnail": "https://dkxm8.com/data/file/main/1728182447_731lVfRP_e8d0911c8fed9f479515c409665482dd60c0ad3a.jpg"
  },
  {
    "title": "[룸/풀사롱] 필독",
    "url": "https://dkxm8.com/profile_popup.php?idx=648318&gubun=1",
    "description": "❌ 한번만 ❌읽어주세요✅",
    "hours": "하이퍼블릭",
    "phone": "010-9567-5872",
    "kakao_id": "",
    "telegram_id": "",
    "thumbnail": "https://dkxm8.com/data/file/main/1728182447_8jEqZw7p_53951239b23fa09f2a4f67fa898a64925ce06283.jpg"
  },
  {
    "title": "[건마] 지중해스웨디시",
    "url": "https://dkxm8.com/profile_popup.php?idx=1311519&gubun=1",
    "description": "강동구 천호동",
    "hours": "오전11:00~오전5:00",
    "phone": "010-7776-6885",
    "kakao_id": "",
    "telegram_id": "",
    "thumbnail": "https://dkxm8.com/data/file/main/1502831921_w8ZBUq5E_391d1b6c574507e89aeb27035721bd011e044b97.jpg"
  },
  {
    "title": "[휴게텔] 단밤",
    "url": "https://dkxm8.com/profile_popup.php?idx=1166080&gubun=1",
    "description": "서울 관악 신림",
    "hours": "AM 11:30 ~ AM 05:30",
    "phone": "010-7357-2912",
    "kakao_id": "",
    "telegram_id": "",
    "thumbnail": "https://dkxm8.com/data/file/main/2699961699_SrnWGZby_8368b36080c23faec0eeacb56c0985b05711d890.jpg"
  },
  {
    "title": "[휴게텔] 착한가게",
    "url": "https://dkxm8.com/profile_popup.php?idx=1347765&gubun=1",
    "description": "서울 신림",
    "hours": "AM 11:30 - AM 06:00",
    "phone": "010-6555-4804",
    "kakao_id": "",
    "telegram_id": "",
    "thumbnail": "https://dkxm8.com/data/file/main/1728182871_dTIEKuCA_1d6d3c0e487c40f9495411de5479e7d32d07cb8a.jpg"
  },
  {
    "title": "[건마] 아우라스웨디시",
    "url": "https://dkxm8.com/profile_popup.php?idx=1300679&gubun=1",
    "description": "서울시 도봉구 창동",
    "hours": "오전11시~오전5시",
    "phone": "010-8051-5885",
    "kakao_id": "",
    "telegram_id": "",
    "thumbnail": "https://dkxm8.com/data/file/main/1502831880_F5TRSk38_9e3827596189062d2ea59d0d2e0941bb61f165d7.jpg"
  },
  {
    "title": "[건마] 클로버스웨디",
    "url": "https://dkxm8.com/profile_popup.php?idx=1179889&gubun=1",
    "description": "동대문구 청량리",
    "hours": "AM 11:00 ~ AM 05:00",
    "phone": "010-5731-1012",
    "kakao_id": "",
    "telegram_id": "",
    "thumbnail": "https://dkxm8.com/data/file/main/1728182871_Ij2k0eyC_ab932cc912b7764aaa64ef710dd4ddfeabf1ea3a.jpg"
  },
  {
    "title": "[건마] 마포S스파",
    "url": "https://dkxm8.com/profile_popup.php?idx=1199300&gubun=1",
    "description": "서울 마포",
    "hours": "AM 11:00 ~ AM 05:00",
    "phone": "010-7553-3678",
    "kakao_id": "",
    "telegram_id": "",
    "thumbnail": "https://dkxm8.com/data/file/main/1728182871_czvSM40s_b62ad7d366c1fad7b9d8cbe527bde6d816796b2e.jpg"
  },
  {
    "title": "[건마] 모카스파",
    "url": "https://dkxm8.com/profile_popup.php?idx=996112&gubun=1",
    "description": "송파구 방이동 먹자골목",
    "hours": "24시간 연중무휴",
    "phone": "010-6531-9531",
    "kakao_id": "",
    "telegram_id": "",
    "thumbnail": "https://dkxm8.com/data/file/main/1502831921_6JsOAf0h_a2713b7eff14071c3e6b8d82088793a0c8787dcd.jpg"
  },
  {
    "title": "[건마] 잠실인스타스파",
    "url": "https://dkxm8.com/profile_popup.php?idx=1299402&gubun=1",
    "description": "전원한국매니저",
    "hours": "AM 9:00 ~ AM 06:00",
    "phone": "010-4865-6011",
    "kakao_id": "",
    "telegram_id": "",
    "thumbnail": "https://dkxm8.com/data/file/main/1502831880_CU9hduRL_826c830ebf3554140dd12448e566661f3653c252.jpg"
  },
  {
    "title": "[건마] 당산M스파",
    "url": "https://dkxm8.com/profile_popup.php?idx=649297&gubun=1",
    "description": "당산역 2번출구 전방.",
    "hours": "24시간 연중 무휴",
    "phone": "010-5736-8477",
    "kakao_id": "",
    "telegram_id": "",
    "thumbnail": "https://dkxm8.com/data/file/main/1728182871_2EcwBOAW_7911b4e5b9f53e3a92ec292450a2c381b9f55ecd.gif"
  },
  {
    "title": "[오피스텔] 산소",
    "url": "https://dkxm8.com/profile_popup.php?idx=1048604&gubun=1",
    "description": "광주역 부근",
    "hours": "PM 02:00 ~ AM 05:00",
    "phone": "010-8276-2618",
    "kakao_id": "",
    "telegram_id": "",
    "thumbnail": "https://dkxm8.com/data/file/main/1728182447_h6RJzHAi_f6ad54266a8b23235cc6b0111fec5001d2c0a947.jpg"
  },
  {
    "title": "[건마] 다이아스웨디시",
    "url": "https://dkxm8.com/profile_popup.php?idx=1145187&gubun=1",
    "description": "남양주 다산동",
    "hours": "AM 11:00 ~ AM 06:00",
    "phone": "010-8050-0337",
    "kakao_id": "",
    "telegram_id": "",
    "thumbnail": "https://dkxm8.com/data/file/main/1728182871_FSTDnGUC_d888c09322549d957a766548a1b7dc3b039fef33.jpg"
  },
  {
    "title": "[휴게텔] 새콤달콤",
    "url": "https://dkxm8.com/profile_popup.php?idx=154074&gubun=1",
    "description": "수원시청역 부근",
    "hours": "12:00 ~ 05:00",
    "phone": "010-8276-2111",
    "kakao_id": "",
    "telegram_id": "",
    "thumbnail": "https://dkxm8.com/data/file/main/2699961699_pI643sOl_7546cae07ddd6dfca19d5863b65c058630142420.jpg"
  },
  {
    "title": "[휴게텔] 퍼스트",
    "url": "https://dkxm8.com/profile_popup.php?idx=1348710&gubun=1",
    "description": "❤️수원역 복귀 이벤트❤️",
    "hours": "13:00 ~ 05:00",
    "phone": "010-7926-6660",
    "kakao_id": "",
    "telegram_id": "",
    "thumbnail": "https://dkxm8.com/data/file/main/1332623112_v1Ld2te9_90d9e37dd23987c1bec940850081ef54d718e90b.jpg"
  },
  {
    "title": "[휴게텔] YSL생로랑",
    "url": "https://dkxm8.com/profile_popup.php?idx=1303475&gubun=1",
    "description": "⭐수원⭐와꾸파 사이즈 보장⭐",
    "hours": "PM 13:00 ~ AM 05:00",
    "phone": "010-5901-3587",
    "kakao_id": "",
    "telegram_id": "",
    "thumbnail": "https://dkxm8.com/data/file/main/1332623114_gzZhnP0X_ab042e13ccb8517e6a0b7448b9573ab64a0d9559.jpg"
  },
  {
    "title": "[건마] 여왕",
    "url": "https://dkxm8.com/profile_popup.php?idx=648970&gubun=1",
    "description": "⏺안성⏺내리⏺농협근처⏺",
    "hours": "24시간",
    "phone": "010-2679-1555",
    "kakao_id": "",
    "telegram_id": "",
    "thumbnail": "https://dkxm8.com/data/file/main/1728182871_vX1NOk3a_a5765b4d387e412529d7c9fffeef0cabe5f8349d.jpg"
  },
  {
    "title": "[휴게텔] 사운드",
    "url": "https://dkxm8.com/profile_popup.php?idx=432589&gubun=1",
    "description": "경기도 오산 궐동",
    "hours": "PM 12:00 ~ AM 05:00",
    "phone": "010-2489-9311",
    "kakao_id": "",
    "telegram_id": "",
    "thumbnail": "https://dkxm8.com/data/file/main/1728182871_t0iPsEeO_62c64ccb164fb849ea0e8415437d23ca04f47918.jpg"
  },
  {
    "title": "[휴게텔] 레드",
    "url": "https://dkxm8.com/profile_popup.php?idx=1218150&gubun=1",
    "description": "용인시 수지구",
    "hours": "1pm ~ 5am",
    "phone": "010-2900-2776",
    "kakao_id": "",
    "telegram_id": "",
    "thumbnail": "https://dkxm8.com/data/file/main/1728182871_z8BAd5mj_212c43268d3f1b7f3cefcc4c74da25c11b2ea2c4.jpg"
  },
  {
    "title": "[건마] Dior디울",
    "url": "https://dkxm8.com/profile_popup.php?idx=1092135&gubun=1",
    "description": "경기도 용인시 보정동",
    "hours": "AM 11:00 ~ AM 05:00",
    "phone": "010-7678-2317",
    "kakao_id": "",
    "telegram_id": "",
    "thumbnail": "https://dkxm8.com/data/file/main/1728182871_0n1dfBXT_cf8f86e6c41d982a1fcaa806857170e53e0db117.jpg"
  },
  {
    "title": "[휴게텔] 사우나",
    "url": "https://dkxm8.com/profile_popup.php?idx=1136928&gubun=1",
    "description": "용인 처인구",
    "hours": "PM 02:00 ~ AM 05:00",
    "phone": "010-8103-4691",
    "kakao_id": "",
    "telegram_id": "",
    "thumbnail": "https://dkxm8.com/data/file/main/1332623118_y78degXR_17aa918a6d7986fbd314d5a23d0da92a19e984e5.jpg"
  },
  {
    "title": "[휴게텔] 려",
    "url": "https://dkxm8.com/profile_popup.php?idx=1261184&gubun=1",
    "description": "✨이천 최우수업소 선정✨",
    "hours": "PM 12:00 ~ AM 05:00",
    "phone": "010-3313-3969",
    "kakao_id": "",
    "telegram_id": "",
    "thumbnail": "https://dkxm8.com/data/file/main/1728182447_kexSpg6J_ee6230cb9e7d13d4e39f305fdfe2476561c75bb7.jpg"
  },
  {
    "title": "[휴게텔] 블루문",
    "url": "https://dkxm8.com/profile_popup.php?idx=649470&gubun=1",
    "description": "이천터미널●즐달보장●1등마인드",
    "hours": "PM 12:00 ~ AM 05:00",
    "phone": "010-3973-3335",
    "kakao_id": "",
    "telegram_id": "",
    "thumbnail": "https://dkxm8.com/data/file/main/1728182871_4KF8MzSV_f9e7e1edcc2ffe9972313c96bd1a85a3ba51e294.gif"
  },
  {
    "title": "[건마] 허니마사지",
    "url": "https://dkxm8.com/profile_popup.php?idx=1351178&gubun=1",
    "description": "이천 터미널 부근 먹자골목!",
    "hours": "PM 12:00 ~ AM 05:00",
    "phone": "010-4346-4568",
    "kakao_id": "",
    "telegram_id": "",
    "thumbnail": "https://dkxm8.com/data/file/main/1728182871_RDYAXopf_63ff2b90819eff04928d3164e408dbb7d01801f2.jpg"
  },
  {
    "title": "[휴게텔] 즐달",
    "url": "https://dkxm8.com/profile_popup.php?idx=648336&gubun=1",
    "description": "❤️❤️평택대부근❤️❤️❤️추천업소❤️❤️",
    "hours": "❤️❤️❤️❤️낮1시 - 새벽4시❤️❤️❤️",
    "phone": "❤️❤️❤️010-8190-2253❤️❤️❤️",
    "kakao_id": "",
    "telegram_id": "",
    "thumbnail": "https://dkxm8.com/data/file/main/1728182447_yvKktI6z_bb7fb7111158d3a492ad9446b5799b2163f8e04a.jpg"
  },
  {
    "title": "[휴게텔] 비타민",
    "url": "https://dkxm8.com/profile_popup.php?idx=649415&gubun=1",
    "description": "⭐평택시동삭동⭐NF영입⭐",
    "hours": "⭐낮1시~새벽4시⭐",
    "phone": "⭐010-2765-0578⭐",
    "kakao_id": "",
    "telegram_id": "",
    "thumbnail": "https://dkxm8.com/data/file/main/1728182871_YaBKTnz8_9247dc6ddabf6f0ffad06cc7c20e44b3a8a767e1.jpg"
  },
  {
    "title": "[휴게텔] 샷",
    "url": "https://dkxm8.com/profile_popup.php?idx=648341&gubun=1",
    "description": "❤️❤️평택대부근❤️이쁜NF영입❤️❤️",
    "hours": "❤️❤️❤️❤️낮1시 - 새벽4시❤️❤️❤️",
    "phone": "❤️❤️❤️010-8190-2253❤️❤️❤️",
    "kakao_id": "",
    "telegram_id": "",
    "thumbnail": "https://dkxm8.com/data/file/main/1728182871_ah8XjViS_def511d30e413a7a73a292083f0143182f878197.jpg"
  },
  {
    "title": "[휴게텔] 화이트",
    "url": "https://dkxm8.com/profile_popup.php?idx=1243854&gubun=1",
    "description": "⭐동탄역SRT인근⭐동탄1등⭐",
    "hours": "⭐오후1시 ~ 새벽4시⭐",
    "phone": "⭐010-9555-0770⭐",
    "kakao_id": "",
    "telegram_id": "",
    "thumbnail": "https://dkxm8.com/data/file/main/1728182447_7LvdiVfu_d97aff6ac16c1a6f486023efd1a7457ae8b4b9bb.jpg"
  },
  {
    "title": "[휴게텔] 킹스맨",
    "url": "https://dkxm8.com/profile_popup.php?idx=1159337&gubun=1",
    "description": "향남 구문천리 부근",
    "hours": "PM 01:00 ~ AM 04:00",
    "phone": "010-3983-4416",
    "kakao_id": "",
    "telegram_id": "",
    "thumbnail": "https://dkxm8.com/data/file/main/1502832069_HvifKwGE_d165b92d39164ca3118cc44a381b22c2b0e93af0.jpg"
  },
  {
    "title": "[오피스텔] BMW",
    "url": "https://dkxm8.com/profile_popup.php?idx=1138933&gubun=1",
    "description": "화성시 동탄",
    "hours": "PM 02:00 ~ AM 05:00",
    "phone": "010-8106-0904",
    "kakao_id": "",
    "telegram_id": "",
    "thumbnail": "https://dkxm8.com/data/file/main/1502831950_7cDPYvjH_b4a139beb9f8ea54b352d558024e65904ee65258.jpg"
  },
  {
    "title": "[오피스텔] 스타일",
    "url": "https://dkxm8.com/profile_popup.php?idx=1220072&gubun=1",
    "description": "인천 부평역 도보 5분거리",
    "hours": "AM 10:00 - AM 05:00",
    "phone": "010-8204-5806",
    "kakao_id": "",
    "telegram_id": "",
    "thumbnail": "https://dkxm8.com/data/file/main/1728182447_bxjAmPEV_1685015c887396029b789ef0c2802f7ac2e05796.jpg"
  },
  {
    "title": "[유흥주점] 송도여신바",
    "url": "https://dkxm8.com/profile_popup.php?idx=1112217&gubun=1",
    "description": "인천광역시 연수구 송도동",
    "hours": "PM7:00~AM4:00",
    "phone": "010-7646-4350",
    "kakao_id": "",
    "telegram_id": "",
    "thumbnail": "https://dkxm8.com/data/file/main/1728182447_FS1YqPmD_03cf9fb929f9fb5362a905bdbd6d496c5c97ccde.jpg"
  },
  {
    "title": "[휴게텔] 자두",
    "url": "https://dkxm8.com/profile_popup.php?idx=1090724&gubun=1",
    "description": "부평구 바베큐광장",
    "hours": "PM 02:00 ~ AM 05:00",
    "phone": "010-5848-7600",
    "kakao_id": "",
    "telegram_id": "",
    "thumbnail": "https://dkxm8.com/data/file/main/1728182871_i5z06pf7_c01491d6cf4a45e2936498ba5ae331314b8e7000.jpg"
  },
  {
    "title": "[오피스텔] 스토리",
    "url": "https://dkxm8.com/profile_popup.php?idx=1012064&gubun=1",
    "description": "일✡️S+급5명✡️히트!✡️",
    "hours": "✡️아침11시-아침7시✡️",
    "phone": "✡️010-8111-6345✡️",
    "kakao_id": "",
    "telegram_id": "",
    "thumbnail": "https://dkxm8.com/data/file/main/1728182871_qGYw2MAk_66176dfba37b47831c5f67e81620178ec18f2ca5.jpg"
  },
  {
    "title": "[건마] Feel",
    "url": "https://dkxm8.com/profile_popup.php?idx=1169880&gubun=1",
    "description": "⭐️ 강서동1인샵⭐핫해 핫해",
    "hours": "✅ 매니져 항시 모집 최고대우✅",
    "phone": "010-5507-6659❤️",
    "kakao_id": "",
    "telegram_id": "",
    "thumbnail": "https://dkxm8.com/data/file/main/1728182871_jbMunHKB_b4864e2d29aa4a69ca1cc440b6d63a7218ea042a.jpg"
  },
  {
    "title": "[휴게텔] 초콜릿",
    "url": "https://dkxm8.com/profile_popup.php?idx=986640&gubun=1",
    "description": "청주1등♥뉴페 지혜♥",
    "hours": "Pm.12:00~Am.05:00",
    "phone": "010-2336-2625",
    "kakao_id": "",
    "telegram_id": "",
    "thumbnail": "https://dkxm8.com/data/file/main/1728182447_ktoZi12P_eb44a1235b72c830177a0c85a46e8b2440f23f19.jpg"
  },
  {
    "title": "[건마] 밀크스웨디시",
    "url": "https://dkxm8.com/profile_popup.php?idx=1113250&gubun=1",
    "description": "충주 구연수동 부근",
    "hours": "오후 12:00 ~ 오전 4:00",
    "phone": "010-6448-6673",
    "kakao_id": "",
    "telegram_id": "",
    "thumbnail": "https://dkxm8.com/data/file/main/1332623111_JyBxIDkz_1809b0e73ac2325b8d92ab3d1dbac11c3a14f039.jpg"
  },
  {
    "title": "[건마] 포텐",
    "url": "https://dkxm8.com/profile_popup.php?idx=1316038&gubun=1",
    "description": "충주 중앙탑면 인근",
    "hours": "PM 12:00 ~ AM 04:00",
    "phone": "010-5950-8651",
    "kakao_id": "",
    "telegram_id": "",
    "thumbnail": "https://dkxm8.com/data/file/main/2699961655_h5aytinz_f5953accc907ba9583b04987d190a9b5bd927b40.jpg"
  },
  {
    "title": "[휴게텔] 코인",
    "url": "https://dkxm8.com/profile_popup.php?idx=1299200&gubun=1",
    "description": "충주 신연수동 부근",
    "hours": "PM 01:00 ~ AM 04:00",
    "phone": "010-8435-4487",
    "kakao_id": "",
    "telegram_id": "",
    "thumbnail": "https://dkxm8.com/data/file/main/1502831880_BYxeolfw_fb427afaeda68c915cc3572999682c37ea732d8a.jpg"
  },
  {
    "title": "[휴게텔] 이자카야",
    "url": "https://dkxm8.com/profile_popup.php?idx=648232&gubun=1",
    "description": "음성진천이천오창청주충주천안",
    "hours": "PM 13:00~ AM 4:00",
    "phone": "010-6806-0955",
    "kakao_id": "",
    "telegram_id": "",
    "thumbnail": "https://dkxm8.com/data/file/main/1728182871_zdhF7lBu_714e65fa0449da1c8e46445e9199dae0315f9ba3.jpg"
  },
  {
    "title": "[오피스텔] 디올",
    "url": "https://dkxm8.com/profile_popup.php?idx=648427&gubun=1",
    "description": "[진천]❤️착한가격 디올❤️",
    "hours": "✳️전원 한국매니져✳️",
    "phone": "010-9119-1910",
    "kakao_id": "",
    "telegram_id": "",
    "thumbnail": "https://dkxm8.com/data/file/main/1728182871_EbzLviM8_588d6ca74b50c140f2ea8d80b3d4bfe1d9809fcd.gif"
  },
  {
    "title": "[오피스텔] 여비서",
    "url": "https://dkxm8.com/profile_popup.php?idx=648858&gubun=1",
    "description": "충북진천 오피!! 여비서♡",
    "hours": "PM 12:00 ~ AM 05:00",
    "phone": "010-3982-2307",
    "kakao_id": "",
    "telegram_id": "",
    "thumbnail": "https://dkxm8.com/data/file/main/1728182871_0cC7i3FV_6093441c63216f78ff1756fb632b4c4d13c5e45a.gif"
  },
  {
    "title": "[건마] 꿀",
    "url": "https://dkxm8.com/profile_popup.php?idx=992414&gubun=1",
    "description": "음성,진천",
    "hours": "24시간",
    "phone": "010 2392 1978",
    "kakao_id": "",
    "telegram_id": "",
    "thumbnail": "https://dkxm8.com/data/file/main/1332623111_STkEXe58_fd7ed45bb7f0041e0ca53daa91c478d5f8b63352.jpg"
  },
  {
    "title": "[건마] 사탕스웨디시",
    "url": "https://dkxm8.com/profile_popup.php?idx=649600&gubun=1",
    "description": "❤️코코,미미❤️",
    "hours": "❤️한국인 싸이즈 20대❤️",
    "phone": "010-5947-7667",
    "kakao_id": "",
    "telegram_id": "",
    "thumbnail": "https://dkxm8.com/data/file/main/2699961655_MR0ilNtT_37b9e64fbb470834b8e99eb547a0ab5b2b76724f.jpg"
  },
  {
    "title": "[휴게텔] 교복",
    "url": "https://dkxm8.com/profile_popup.php?idx=1265030&gubun=1",
    "description": "❤️오창❤️홈플러스 부근❤️",
    "hours": "PM 01:00~AM 05:00",
    "phone": "010-8156-2880",
    "kakao_id": "",
    "telegram_id": "",
    "thumbnail": "https://dkxm8.com/data/file/main/1332623107_IUVjPpoM_89bf16225658ad637f456e6be06934508f0c1cff.jpg"
  },
  {
    "title": "[휴게텔] 여기어때",
    "url": "https://dkxm8.com/profile_popup.php?idx=649607&gubun=1",
    "description": "오창 힐링업소",
    "hours": "PM 17:00 ~ AM 05:00",
    "phone": "010-6448-5992",
    "kakao_id": "",
    "telegram_id": "",
    "thumbnail": "https://dkxm8.com/data/file/main/1728182871_Xl3GKnfQ_8ca7690892422cb2f5ad8ab67c66644b43cde1ec.gif"
  },
  {
    "title": "[오피스텔] 하리보",
    "url": "https://dkxm8.com/profile_popup.php?idx=1244008&gubun=1",
    "description": "❤️취암동❤️오거리 터미널근처",
    "hours": "1PM ~ 4AM",
    "phone": "010-4379-8642",
    "kakao_id": "",
    "telegram_id": "",
    "thumbnail": "https://dkxm8.com/data/file/main/1502832061_pINkPh6i_1348b6e468bff0918588ea9453c7f917ef8f0390.jpg"
  },
  {
    "title": "[건마] 효녀출장",
    "url": "https://dkxm8.com/profile_popup.php?idx=1243657&gubun=1",
    "description": "A급수질❤️출장업소❤️",
    "hours": "24시간",
    "phone": "010-9909-5176",
    "kakao_id": "",
    "telegram_id": "",
    "thumbnail": "https://dkxm8.com/data/file/main/1728182871_xBTJZ5LV_38b7327406777e74eaf659411791ba3b6e3138bb.jpg"
  },
  {
    "title": "[오피스텔] 당진러시아출장",
    "url": "https://dkxm8.com/profile_popup.php?idx=1246467&gubun=1",
    "description": "당진출장전문방문가능",
    "hours": "오후4:00~오전6:00",
    "phone": "010-8129-2638",
    "kakao_id": "",
    "telegram_id": "",
    "thumbnail": "https://dkxm8.com/data/file/main/1502832069_5Fb2acv3_2001af7f73d1ef274c46c75197921120c1a9b7b7.jpg"
  },
  {
    "title": "[휴게텔] 당신",
    "url": "https://dkxm8.com/profile_popup.php?idx=1276300&gubun=1",
    "description": "❤️후기할인❤️사이즈최강❤️",
    "hours": "❤️1pm~5am❤️",
    "phone": "✅010-7512-4608✅",
    "kakao_id": "",
    "telegram_id": "",
    "thumbnail": "https://dkxm8.com/data/file/main/1332623114_ID9Jchn8_be15e75953a3326f4fea036dd0b51172aaaba1f3.jpg"
  },
  {
    "title": "[건마] 몽마사지",
    "url": "https://dkxm8.com/profile_popup.php?idx=1194554&gubun=1",
    "description": "보령 대천",
    "hours": "pm 01~am 04",
    "phone": "010 6581 4686",
    "kakao_id": "",
    "telegram_id": "",
    "thumbnail": "https://dkxm8.com/data/file/main/1728182447_hAgtjRKf_faf214349a315d40584a73aa8c165c58aba8bb87.jpg"
  },
  {
    "title": "[오피스텔] 만남의광장",
    "url": "https://dkxm8.com/profile_popup.php?idx=1012096&gubun=1",
    "description": "보령 대천 청양 무창포",
    "hours": "PM 12:00~ AM 04:00",
    "phone": "010-9824-3677",
    "kakao_id": "",
    "telegram_id": "",
    "thumbnail": "https://dkxm8.com/data/file/main/1728182871_F3BlbM6D_c0e2d494e4522e0444d55820425aa283e116d0a2.jpg"
  },
  {
    "title": "[오피스텔] 꽃밭",
    "url": "https://dkxm8.com/profile_popup.php?idx=1197188&gubun=1",
    "description": "❤️일❤️대학생 영입!",
    "hours": "❤️전원한국매니저❤️",
    "phone": "010-2187-5888",
    "kakao_id": "",
    "telegram_id": "",
    "thumbnail": "https://dkxm8.com/data/file/main/1728182447_0atW1kRy_676a9f1fce1f6d63d0eb9f855e473e1d4dbdb784.jpg"
  },
  {
    "title": "[오피스텔] 스타벅스",
    "url": "https://dkxm8.com/profile_popup.php?idx=914845&gubun=1",
    "description": "호수공원근처",
    "hours": "PM 01:00 ~ AM 03:00",
    "phone": "010-2891-2885",
    "kakao_id": "",
    "telegram_id": "",
    "thumbnail": "https://dkxm8.com/data/file/main/1728182447_C7WV21IR_59ee6eccd87f5e80a6f06ea3c344909bd621d145.jpg"
  },
  {
    "title": "[건마] 버블스웨디시",
    "url": "https://dkxm8.com/profile_popup.php?idx=1203947&gubun=1",
    "description": "충남 서산",
    "hours": "am 11:00~am 04:00",
    "phone": "010-6507-2849",
    "kakao_id": "",
    "telegram_id": "",
    "thumbnail": "https://dkxm8.com/data/file/main/2699961699_C81zNxkm_cd2e8e1f48623e799b8fd8ffea02685a84a83aee.jpg"
  },
  {
    "title": "[휴게텔] 미끌미끌",
    "url": "https://dkxm8.com/profile_popup.php?idx=770014&gubun=1",
    "description": "아산시♥1등업소♥",
    "hours": "PM 12:00 ~ AM 05:00",
    "phone": "010-2352-6446",
    "kakao_id": "",
    "telegram_id": "",
    "thumbnail": "https://dkxm8.com/data/file/main/1728182871_gSiKzjV6_03bc8a9d45e69c54dbda8b9d245e6ad5c48db206.gif"
  },
  {
    "title": "[휴게텔] 샴푸",
    "url": "https://dkxm8.com/profile_popup.php?idx=719261&gubun=1",
    "description": "온양온천역/용화동",
    "hours": "1pm - 5am",
    "phone": "010-8157-9585",
    "kakao_id": "",
    "telegram_id": "",
    "thumbnail": "https://dkxm8.com/data/file/main/1728182871_dFa9w1kv_0986f1915d711498c4da8926ad076f67e37de88e.gif"
  },
  {
    "title": "[휴게텔] 미끌미끌",
    "url": "https://dkxm8.com/profile_popup.php?idx=770014&gubun=1",
    "description": "아산시♥1등업소♥",
    "hours": "PM 12:00 ~ AM 05:00",
    "phone": "010-2352-6446",
    "kakao_id": "",
    "telegram_id": "",
    "thumbnail": "https://dkxm8.com/data/file/main/1728182871_gSiKzjV6_03bc8a9d45e69c54dbda8b9d245e6ad5c48db206.gif"
  },
  {
    "title": "[휴게텔] 세븐일레븐",
    "url": "https://dkxm8.com/profile_popup.php?idx=1362220&gubun=1",
    "description": "❤️성정동,두정동휴게텔맛집❤️",
    "hours": "12시-5시",
    "phone": "010-2181-6527",
    "kakao_id": "",
    "telegram_id": "",
    "thumbnail": "https://dkxm8.com/data/file/main/2669311878_UzQldkOK_400b58ff93fd124b50243ae93a1e595dd550238a.jpg"
  },
  {
    "title": "[휴게텔] 러브미",
    "url": "https://dkxm8.com/profile_popup.php?idx=648338&gubun=1",
    "description": "✨전국 1등✨베트남✨태국✨",
    "hours": "PM 12:00 ~ AM 04:00",
    "phone": "010-5670-6198",
    "kakao_id": "",
    "telegram_id": "",
    "thumbnail": "https://dkxm8.com/data/file/main/2699961636_hkMNBZIW_8f33f3241f8021685eb4c4f3658cc39320b90bd3.jpg"
  },
  {
    "title": "[휴게텔] 1004",
    "url": "https://dkxm8.com/profile_popup.php?idx=648324&gubun=1",
    "description": "천안시 두정 성정동",
    "hours": "PM 01:00 ~ AM 04:00",
    "phone": "010-2180-6571",
    "kakao_id": "",
    "telegram_id": "",
    "thumbnail": "https://dkxm8.com/data/file/main/1728182871_amKLHUjd_a573475683f4791a5c17fa557067a6d72dfe8032.jpg"
  },
  {
    "title": "[휴게텔] 강남미시",
    "url": "https://dkxm8.com/profile_popup.php?idx=1305665&gubun=1",
    "description": "홍성군 홍성시장 근처",
    "hours": "❤️번호 변경❤️",
    "phone": "010-2135-3227",
    "kakao_id": "",
    "telegram_id": "",
    "thumbnail": "https://dkxm8.com/data/file/main/1502832116_fKaz2Xi4_262914096ea37386de63d64536a05e9ec31ed52d.jpg"
  },
  {
    "title": "[건마] 외로움출장",
    "url": "https://dkxm8.com/profile_popup.php?idx=1292719&gubun=1",
    "description": "홍성/당진/천안/아산",
    "hours": "24시",
    "phone": "010 6828 8130",
    "kakao_id": "",
    "telegram_id": "",
    "thumbnail": "https://dkxm8.com/data/file/main/1502831950_GbwCjitY_9bb983c5a2c726e7c1179ac1bcd3762fb97b91dd.jpg"
  },
  {
    "title": "[안마] 더블유",
    "url": "https://dkxm8.com/profile_popup.php?idx=663903&gubun=1",
    "description": "❤️최상급라인업❤️대전1위❤️",
    "hours": "✅고객만족 1위✅24시✅",
    "phone": "❤️010-5865-8461❤️",
    "kakao_id": "",
    "telegram_id": "",
    "thumbnail": "https://dkxm8.com/data/file/main/1728182871_1S6vKqM7_4a105bcc5e16889372bd771e3e7940a25c7e4a58.jpg"
  },
  {
    "title": "[건마] S스웨디시",
    "url": "https://dkxm8.com/profile_popup.php?idx=531333&gubun=1",
    "description": "❤️대박할인이벤트❤️단체환영",
    "hours": "10:30예약 하드스웨끝판왕",
    "phone": "⭕010-4996-1945⭕",
    "kakao_id": "",
    "telegram_id": "",
    "thumbnail": "https://dkxm8.com/data/file/main/1728182447_pzIM3clv_81169b8d937a90d9e2c89a3b4129ce5490052c75.jpg"
  },
  {
    "title": "[안마] 알프스",
    "url": "https://dkxm8.com/profile_popup.php?idx=1056586&gubun=1",
    "description": "⛔유성1등 전통안마⛔하드코어⛔",
    "hours": "✡️24시 정상영업 풀코스✡️",
    "phone": "❤️010-5865-8461❤️",
    "kakao_id": "",
    "telegram_id": "",
    "thumbnail": "https://dkxm8.com/data/file/main/1728182447_TfUBFhAC_f050f7a4c2e30ed7da97ace0f239cfc7e7f70e31.jpg"
  },
  {
    "title": "[건마] 천사유혹",
    "url": "https://dkxm8.com/profile_popup.php?idx=1148575&gubun=1",
    "description": "세종시 나성동",
    "hours": "24시간 연중무휴",
    "phone": "010-2268-6625",
    "kakao_id": "",
    "telegram_id": "",
    "thumbnail": "https://dkxm8.com/data/file/main/1728182447_sVuMeDnG_532636ed60a9f3dae21407add00dadb728f5b5bf.jpg"
  },
  {
    "title": "[건마] The 딸",
    "url": "https://dkxm8.com/profile_popup.php?idx=648573&gubun=1",
    "description": "❤️올탈❤️하드❤️원샷6만원",
    "hours": "PM 12:00 ~ AM 03:00",
    "phone": "010-4638-1166",
    "kakao_id": "",
    "telegram_id": "",
    "thumbnail": "https://dkxm8.com/data/file/main/1728182871_KOkWYvdc_d0022aabb4799d8e5340e8f0725ebb91cdb126b5.jpg"
  },
  {
    "title": "[휴게텔] 마르지엘라",
    "url": "https://dkxm8.com/profile_popup.php?idx=1248439&gubun=1",
    "description": "❣️NF메이,NF슈 등장!❣️",
    "hours": "█ 나성동 █ 13:00~ 05:00",
    "phone": "010-9809-2501",
    "kakao_id": "",
    "telegram_id": "",
    "thumbnail": "https://dkxm8.com/data/file/main/1502831921_TlcNgZXM_cbf65cb7ec681992707d4df48313d19262ab431c.jpg"
  },
  {
    "title": "[오피스텔] 맛집",
    "url": "https://dkxm8.com/profile_popup.php?idx=654699&gubun=1",
    "description": "전북 군산시 (상세주소 문의)",
    "hours": "PM 12:00~AM 05:00",
    "phone": "010-8324-3217",
    "kakao_id": "",
    "telegram_id": "",
    "thumbnail": "https://dkxm8.com/data/file/main/1728182456_5jZdflkh_356a480418132b882d5f769bf6ce8241c1df5d86.gif"
  },
  {
    "title": "[오피스텔] 파타야",
    "url": "https://dkxm8.com/profile_popup.php?idx=1045360&gubun=1",
    "description": "익산시 영등동부근",
    "hours": "오후1시~오전5시",
    "phone": "010-7902-7355",
    "kakao_id": "",
    "telegram_id": "",
    "thumbnail": "https://dkxm8.com/data/file/main/1332623111_xuW4sh5O_211e664bf3ab71b03d73187aef320b6f3abd0c20.jpg"
  },
  {
    "title": "[오피스텔] 썸",
    "url": "https://dkxm8.com/profile_popup.php?idx=1180827&gubun=1",
    "description": "익산시 영등동 부근",
    "hours": "PM 2:00 ~ AM 05:00",
    "phone": "010-3303-4759",
    "kakao_id": "",
    "telegram_id": "",
    "thumbnail": "https://dkxm8.com/data/file/main/1728182447_oFsyvQhd_e7a9c2aa593e739aac135d9bb7881a1769752b5f.jpg"
  },
  {
    "title": "[건마] 디저트",
    "url": "https://dkxm8.com/profile_popup.php?idx=1200831&gubun=1",
    "description": "전북 전주",
    "hours": "PM 01:00 ~ AM 05:00",
    "phone": "010-9518-9959",
    "kakao_id": "",
    "telegram_id": "",
    "thumbnail": "https://dkxm8.com/data/file/main/1728182447_ogPTsa3x_da99640f14bd1be34ff786779da863a34b065a1f.jpg"
  },
  {
    "title": "[건마] 전주좋은느낌",
    "url": "https://dkxm8.com/profile_popup.php?idx=648495&gubun=1",
    "description": "전주혁신도시",
    "hours": "PM 14:00 ~ AM 05:00",
    "phone": "010-3209-8669",
    "kakao_id": "",
    "telegram_id": "",
    "thumbnail": "https://dkxm8.com/data/file/main/1728182871_MHnZNEw7_e3bb83413656954ac85dc916803bc2331367ca0f.gif"
  }
]