[
  {
    "title": "[휴게텔] 롤렉스",
    "url": "https://dkxm8.com/profile_popup.php?idx=1147796&gubun=1",
    "description": "❤️봉명동❤️와꾸족 드루왕❤️",
    "hours": "❤️PM13:00~AM05:00❤️",
    "phone": "❤️010-2133-9839❤️",
    "kakao_id": "",
    "telegram_id": "",
    "thumbnail": "https://dkxm8.com/data/file/main/1728182871_vAe17d4T_a4c2ee5a7a8f7afafcfdeec346b2ee6ce44ba1ae.jpg",
    "area": "대전/충청"
  },
  {
    "title": "[건마] S스웨디시",
    "url": "https://dkxm8.com/profile_popup.php?idx=531333&gubun=1",
    "description": "❤️대박할인이벤트❤️단체환영",
    "hours": "10:30예약 하드스웨끝판왕",
    "phone": "⭕010-4996-1945⭕",
    "kakao_id": "",
    "telegram_id": "",
    "thumbnail": "https://dkxm8.com/data/file/main/1728182447_pzIM3clv_81169b8d937a90d9e2c89a3b4129ce5490052c75.jpg",
    "area": "대전/충청"
  },
  {
    "title": "[안마] 센스안마",
    "url": "https://dkxm8.com/profile_popup.php?idx=1056581&gubun=1",
    "description": "❤대전맛집❤일본 AV 시스템❤️",
    "hours": "✅유성 전체1등 즐달보장✅",
    "phone": "010-5865-8461",
    "kakao_id": "",
    "telegram_id": "",
    "thumbnail": "https://dkxm8.com/data/file/main/1728182447_IByYJ2H9_9a9598b001594c68542894c3e195a570dd4f98f7.jpg",
    "area": "대전/충청"
  },
  {
    "title": "[휴게텔] 세탁소",
    "url": "https://dkxm8.com/profile_popup.php?idx=648425&gubun=1",
    "description": "✨관저동.가수원동✨NF소라",
    "hours": "❤️극강하드컨셉❤️프리미엄 휴게텔❤️",
    "phone": "010-3440-8920",
    "kakao_id": "",
    "telegram_id": "",
    "thumbnail": "https://dkxm8.com/data/file/main/1502832061_oYINAHru_c6468565ac878cfc4a992da8def91fe86a28a482.jpg",
    "area": "대전"
  },
  {
    "title": "[오피스텔] 유앤미",
    "url": "https://dkxm8.com/profile_popup.php?idx=648446&gubun=1",
    "description": "♻️♻️유성구 봉명동♻️♻️",
    "hours": "⤴️⤴️12:00~04:00⤴️⤴️",
    "phone": "⭐⭐010-8296-4961⭐⭐",
    "kakao_id": "",
    "telegram_id": "",
    "thumbnail": "https://dkxm8.com/data/file/main/1728182447_yzS4TG90_0619b3361ae6c36f56862854abb8ea5e4499c4be.jpg",
    "area": "대전"
  },
  {
    "title": "[룸/풀사롱] 예쁜하린실장",
    "url": "https://dkxm8.com/profile_popup.php?idx=648441&gubun=1",
    "description": "⛔➿✅유성봉명동✅➿⛔",
    "hours": "❤️365일❤️24시간❤️",
    "phone": "010-8412-1753",
    "kakao_id": "",
    "telegram_id": "",
    "thumbnail": "https://dkxm8.com/data/file/main/1332623114_Pp9vQ7fk_eeedba71e92a6a57323bd2018c7d21e9124ef60e.jpg",
    "area": "대전"
  },
  {
    "title": "[휴게텔] 1004",
    "url": "https://dkxm8.com/profile_popup.php?idx=648324&gubun=1",
    "description": "천안시 두정 성정동",
    "hours": "PM 01:00 ~ AM 04:00",
    "phone": "010-2180-6571",
    "kakao_id": "",
    "telegram_id": "",
    "thumbnail": "https://dkxm8.com/data/file/main/1728182871_amKLHUjd_a573475683f4791a5c17fa557067a6d72dfe8032.jpg",
    "area": "천안"
  },
  {
    "title": "[휴게텔] 러브미",
    "url": "https://dkxm8.com/profile_popup.php?idx=648338&gubun=1",
    "description": "✨전국 1등✨베트남✨태국✨",
    "hours": "PM 12:00 ~ AM 04:00",
    "phone": "010-5670-6198",
    "kakao_id": "",
    "telegram_id": "",
    "thumbnail": "https://dkxm8.com/data/file/main/2699961636_hkMNBZIW_8f33f3241f8021685eb4c4f3658cc39320b90bd3.jpg",
    "area": "천안"
  },
  {
    "title": "[휴게텔] 세븐일레븐",
    "url": "https://dkxm8.com/profile_popup.php?idx=1362220&gubun=1",
    "description": "❤️성정동,두정동휴게텔맛집❤️",
    "hours": "12시-5시",
    "phone": "010-2181-6527",
    "kakao_id": "",
    "telegram_id": "",
    "thumbnail": "https://dkxm8.com/data/file/main/2669311878_UzQldkOK_400b58ff93fd124b50243ae93a1e595dd550238a.jpg",
    "area": "천안"
  },
  {
    "title": "[오피스텔] 미슐랭",
    "url": "https://dkxm8.com/profile_popup.php?idx=648319&gubun=1",
    "description": "⤴️청주 맛집 1등 맛슐랭⤴️",
    "hours": "✅매니져 상시 모집✅",
    "phone": "⭐010-8357-2334⭐",
    "kakao_id": "",
    "telegram_id": "",
    "thumbnail": "https://dkxm8.com/data/file/main/1728182871_TNtzeRD6_43f30cee06bc4f07fbab2fc62f352c15bf38699c.jpg",
    "area": "청주"
  },
  {
    "title": "[건마] 포엠",
    "url": "https://dkxm8.com/profile_popup.php?idx=650837&gubun=1",
    "description": "✈️압도적인 사이즈 ✈️",
    "hours": "❣️12:00~03:00❣️",
    "phone": "❤️010-3626-7975❤️",
    "kakao_id": "",
    "telegram_id": "",
    "thumbnail": "https://dkxm8.com/data/file/main/1728182447_Fx0LQC8n_45b712437ab9b260800753f7866a7e29122af161.jpg",
    "area": "청주"
  },
  {
    "title": "[휴게텔] 옹달샘",
    "url": "https://dkxm8.com/profile_popup.php?idx=969055&gubun=1",
    "description": "클릭⭕아로마⭕NF베네수엘라⭕️",
    "hours": "단체⭕️청주NO.1❤️ 풀옵션⭕️",
    "phone": "010-8341-2211",
    "kakao_id": "",
    "telegram_id": "",
    "thumbnail": "https://dkxm8.com/data/file/main/1728182871_8UqGeSaT_c985727b1c3f3b4e3f9d2a29158d11a64c7d1a1e.jpg",
    "area": "청주"
  },
  {
    "title": "[건마] 허니스웨디시",
    "url": "https://dkxm8.com/profile_popup.php?idx=955907&gubun=1",
    "description": "나성동 예쁜 뉴페 등장...❤",
    "hours": "20대 뉴페 실사100%!!",
    "phone": "❤️010-3414-6778❤️",
    "kakao_id": "",
    "telegram_id": "",
    "thumbnail": "https://dkxm8.com/data/file/main/1728182447_BG5Jl6VS_1d5bfb845886ff0c6b6e51f133ea53a8cfa07b45.jpg",
    "area": "세종"
  },
  {
    "title": "[건마] 천사",
    "url": "https://dkxm8.com/profile_popup.php?idx=863226&gubun=1",
    "description": "세종특별자치시 고운동",
    "hours": "PM 12:00 - AM 04:00",
    "phone": "010-2155-3666",
    "kakao_id": "",
    "telegram_id": "",
    "thumbnail": "https://dkxm8.com/data/file/main/1728182871_rigo16l9_f7686523c8de3e405071d20640e3168ab76d0393.jpg",
    "area": "세종"
  },
  {
    "title": "[건마] 사쿠라",
    "url": "https://dkxm8.com/profile_popup.php?idx=1294719&gubun=1",
    "description": "도담동",
    "hours": "24시간",
    "phone": "010-5865-0882",
    "kakao_id": "",
    "telegram_id": "",
    "thumbnail": "https://dkxm8.com/data/file/main/1502831950_YRICs3ML_03444694607dd2cf226cc4b3dc253a77dd6b9c9d.jpg",
    "area": "세종"
  },
  {
    "title": "[오피스텔] 스타벅스",
    "url": "https://dkxm8.com/profile_popup.php?idx=914845&gubun=1",
    "description": "호수공원근처",
    "hours": "PM 01:00 ~ AM 03:00",
    "phone": "010-2891-2885",
    "kakao_id": "",
    "telegram_id": "",
    "thumbnail": "https://dkxm8.com/data/file/main/1728182447_C7WV21IR_59ee6eccd87f5e80a6f06ea3c344909bd621d145.jpg",
    "area": "서산"
  },
  {
    "title": "[오피스텔] 꽃밭",
    "url": "https://dkxm8.com/profile_popup.php?idx=1197188&gubun=1",
    "description": "❤️일❤️대학생 영입!",
    "hours": "❤️전원한국매니저❤️",
    "phone": "010-2187-5888",
    "kakao_id": "",
    "telegram_id": "",
    "thumbnail": "https://dkxm8.com/data/file/main/1728182447_0atW1kRy_676a9f1fce1f6d63d0eb9f855e473e1d4dbdb784.jpg",
    "area": "서산"
  },
  {
    "title": "[건마] 버블스웨디시",
    "url": "https://dkxm8.com/profile_popup.php?idx=1203947&gubun=1",
    "description": "충남 서산",
    "hours": "am 11:00~am 04:00",
    "phone": "010-6507-2849",
    "kakao_id": "",
    "telegram_id": "",
    "thumbnail": "https://dkxm8.com/data/file/main/2699961699_C81zNxkm_cd2e8e1f48623e799b8fd8ffea02685a84a83aee.jpg",
    "area": "서산"
  },
  {
    "title": "[오피스텔] 퍼스트",
    "url": "https://dkxm8.com/profile_popup.php?idx=1234573&gubun=1",
    "description": "충청남도 당진시",
    "hours": "PM 02:00 ~ AM 05:00",
    "phone": "010-8114-1153",
    "kakao_id": "",
    "telegram_id": "",
    "thumbnail": "https://dkxm8.com/data/file/main/2699961636_mR4A03Ws_9711aa6b37253e7231401be78bc66b9b9f15257c.jpg",
    "area": "당진"
  },
  {
    "title": "[건마] 다이아스웨디시",
    "url": "https://dkxm8.com/profile_popup.php?idx=1365421&gubun=1",
    "description": "♥️읍내동 문예의전당 근처♥️",
    "hours": "♥️12시 ~ 03시♥️",
    "phone": "010-8174-7010",
    "kakao_id": "",
    "telegram_id": "",
    "thumbnail": "https://dkxm8.com/data/file/main/2669311878_MNXu60zZ_5a81d54b907421ae5e1e3293161b8b8f25cf52da.jpg",
    "area": "당진"
  },
  {
    "title": "[휴게텔] 당신",
    "url": "https://dkxm8.com/profile_popup.php?idx=1276300&gubun=1",
    "description": "❤️후기할인❤️사이즈최강❤️",
    "hours": "❤️1pm~5am❤️",
    "phone": "✅010-7512-4608✅",
    "kakao_id": "",
    "telegram_id": "",
    "thumbnail": "https://dkxm8.com/data/file/main/1332623114_ID9Jchn8_be15e75953a3326f4fea036dd0b51172aaaba1f3.jpg",
    "area": "당진"
  },
  {
    "title": "[건마] 몽마사지",
    "url": "https://dkxm8.com/profile_popup.php?idx=1194554&gubun=1",
    "description": "보령 대천",
    "hours": "pm 01~am 04",
    "phone": "010 6581 4686",
    "kakao_id": "",
    "telegram_id": "",
    "thumbnail": "https://dkxm8.com/data/file/main/1728182447_hAgtjRKf_faf214349a315d40584a73aa8c165c58aba8bb87.jpg",
    "area": "보령"
  },
  {
    "title": "[오피스텔] 만남의광장",
    "url": "https://dkxm8.com/profile_popup.php?idx=1012096&gubun=1",
    "description": "보령 대천 청양 무창포",
    "hours": "PM 12:00~ AM 04:00",
    "phone": "010-9824-3677",
    "kakao_id": "",
    "telegram_id": "",
    "thumbnail": "https://dkxm8.com/data/file/main/1728182871_F3BlbM6D_c0e2d494e4522e0444d55820425aa283e116d0a2.jpg",
    "area": "보령"
  },
  {
    "title": "[오피스텔] 디올",
    "url": "https://dkxm8.com/profile_popup.php?idx=648427&gubun=1",
    "description": "[진천]❤️착한가격 디올❤️",
    "hours": "✳️전원 한국매니져✳️",
    "phone": "010-9119-1910",
    "kakao_id": "",
    "telegram_id": "",
    "thumbnail": "https://dkxm8.com/data/file/main/1728182871_EbzLviM8_588d6ca74b50c140f2ea8d80b3d4bfe1d9809fcd.gif",
    "area": "진천"
  },
  {
    "title": "[휴게텔] 이자카야",
    "url": "https://dkxm8.com/profile_popup.php?idx=648232&gubun=1",
    "description": "음성진천이천오창청주충주천안",
    "hours": "PM 13:00~ AM 4:00",
    "phone": "010-6806-0955",
    "kakao_id": "",
    "telegram_id": "",
    "thumbnail": "https://dkxm8.com/data/file/main/1728182871_zdhF7lBu_714e65fa0449da1c8e46445e9199dae0315f9ba3.jpg",
    "area": "진천"
  },
  {
    "title": "[오피스텔] 여비서",
    "url": "https://dkxm8.com/profile_popup.php?idx=648858&gubun=1",
    "description": "충북진천 오피!! 여비서♡",
    "hours": "PM 12:00 ~ AM 05:00",
    "phone": "010-3982-2307",
    "kakao_id": "",
    "telegram_id": "",
    "thumbnail": "https://dkxm8.com/data/file/main/1728182871_0cC7i3FV_6093441c63216f78ff1756fb632b4c4d13c5e45a.gif",
    "area": "진천"
  },
  {
    "title": "[휴게텔] 미끌미끌",
    "url": "https://dkxm8.com/profile_popup.php?idx=770014&gubun=1",
    "description": "아산시♥1등업소♥",
    "hours": "PM 12:00 ~ AM 05:00",
    "phone": "010-2352-6446",
    "kakao_id": "",
    "telegram_id": "",
    "thumbnail": "https://dkxm8.com/data/file/main/1728182871_gSiKzjV6_03bc8a9d45e69c54dbda8b9d245e6ad5c48db206.gif",
    "area": "아산"
  },
  {
    "title": "[휴게텔] 사쿠라",
    "url": "https://dkxm8.com/profile_popup.php?idx=1365944&gubun=1",
    "description": "충남 아산시 용화동1등",
    "hours": "오후1시 ~ 새벽4시",
    "phone": "010-8159-3252",
    "kakao_id": "",
    "telegram_id": "",
    "thumbnail": "https://dkxm8.com/data/file/main/2669311878_Y6RSWED2_198d9f60ec09fef4becb7dfa2ee502113f2f9e60.jpg",
    "area": "아산"
  },
  {
    "title": "[휴게텔] 미끌미끌",
    "url": "https://dkxm8.com/profile_popup.php?idx=770014&gubun=1",
    "description": "아산시♥1등업소♥",
    "hours": "PM 12:00 ~ AM 05:00",
    "phone": "010-2352-6446",
    "kakao_id": "",
    "telegram_id": "",
    "thumbnail": "https://dkxm8.com/data/file/main/1728182871_gSiKzjV6_03bc8a9d45e69c54dbda8b9d245e6ad5c48db206.gif",
    "area": "아산"
  },
  {
    "title": "[건마] 밀크스웨디시",
    "url": "https://dkxm8.com/profile_popup.php?idx=1113250&gubun=1",
    "description": "충주 구연수동 부근",
    "hours": "오후 12:00 ~ 오전 4:00",
    "phone": "010-6448-6673",
    "kakao_id": "",
    "telegram_id": "",
    "thumbnail": "https://dkxm8.com/data/file/main/1332623111_JyBxIDkz_1809b0e73ac2325b8d92ab3d1dbac11c3a14f039.jpg",
    "area": "충주"
  },
  {
    "title": "[휴게텔] 낙원",
    "url": "https://dkxm8.com/profile_popup.php?idx=989356&gubun=1",
    "description": "⏩❤️충주 신연수동❤️ (제천",
    "hours": "⏩ PM12:00~AM05:00",
    "phone": "⏩⏩010-5714-3585",
    "kakao_id": "",
    "telegram_id": "",
    "thumbnail": "https://dkxm8.com/data/file/main/1728182871_tIbdTru1_a1a1217d1c5402f9db9c67f271c5ccf2c164f2ec.jpg",
    "area": "충주"
  },
  {
    "title": "[건마] 포텐",
    "url": "https://dkxm8.com/profile_popup.php?idx=1316038&gubun=1",
    "description": "충주 중앙탑면 인근",
    "hours": "PM 12:00 ~ AM 04:00",
    "phone": "010-5950-8651",
    "kakao_id": "",
    "telegram_id": "",
    "thumbnail": "https://dkxm8.com/data/file/main/2699961655_h5aytinz_f5953accc907ba9583b04987d190a9b5bd927b40.jpg",
    "area": "충주"
  },
  {
    "title": "[휴게텔] 강남미시",
    "url": "https://dkxm8.com/profile_popup.php?idx=1305665&gubun=1",
    "description": "홍성군 홍성시장 근처",
    "hours": "❤️번호 변경❤️",
    "phone": "010-2135-3227",
    "kakao_id": "",
    "telegram_id": "",
    "thumbnail": "https://dkxm8.com/data/file/main/1502832116_fKaz2Xi4_262914096ea37386de63d64536a05e9ec31ed52d.jpg",
    "area": "홍성"
  },
  {
    "title": "[건마] 외로움출장",
    "url": "https://dkxm8.com/profile_popup.php?idx=1292719&gubun=1",
    "description": "홍성/당진/천안/아산",
    "hours": "24시",
    "phone": "010 6828 8130",
    "kakao_id": "",
    "telegram_id": "",
    "thumbnail": "https://dkxm8.com/data/file/main/1502831950_GbwCjitY_9bb983c5a2c726e7c1179ac1bcd3762fb97b91dd.jpg",
    "area": "홍성"
  },
  {
    "title": "[오피스텔] 하리보",
    "url": "https://dkxm8.com/profile_popup.php?idx=1244008&gubun=1",
    "description": "❤️취암동❤️오거리 터미널근처",
    "hours": "1PM ~ 4AM",
    "phone": "010-4379-8642",
    "kakao_id": "",
    "telegram_id": "",
    "thumbnail": "https://dkxm8.com/data/file/main/1502832061_pINkPh6i_1348b6e468bff0918588ea9453c7f917ef8f0390.jpg",
    "area": "논산"
  },
  {
    "title": "[휴게텔] 여기어때",
    "url": "https://dkxm8.com/profile_popup.php?idx=649607&gubun=1",
    "description": "오창 힐링업소",
    "hours": "PM 17:00 ~ AM 05:00",
    "phone": "010-6448-5992",
    "kakao_id": "",
    "telegram_id": "",
    "thumbnail": "https://dkxm8.com/data/file/main/1728182871_Xl3GKnfQ_8ca7690892422cb2f5ad8ab67c66644b43cde1ec.gif",
    "area": "오창"
  },
  {
    "title": "[건마] 오렌지",
    "url": "https://dkxm8.com/profile_popup.php?idx=648825&gubun=1",
    "description": "✨청주시✨오창✨홈플러스✨",
    "hours": "24시간 연중무휴",
    "phone": "010-8069-7566",
    "kakao_id": "",
    "telegram_id": "",
    "thumbnail": "https://dkxm8.com/data/file/main/1728182447_QcnTeIFH_0a739c6f36625adfb98eaf3a587ca55cfd12462b.jpg",
    "area": "오창"
  },
  {
    "title": "[건마] 사탕스웨디시",
    "url": "https://dkxm8.com/profile_popup.php?idx=649600&gubun=1",
    "description": "❤️코코,미미❤️",
    "hours": "❤️한국인 싸이즈 20대❤️",
    "phone": "010-5947-7667",
    "kakao_id": "",
    "telegram_id": "",
    "thumbnail": "https://dkxm8.com/data/file/main/2699961655_MR0ilNtT_37b9e64fbb470834b8e99eb547a0ab5b2b76724f.jpg",
    "area": "오창"
  },
  {
    "title": "[건마] 꿀",
    "url": "https://dkxm8.com/profile_popup.php?idx=992414&gubun=1",
    "description": "음성,진천",
    "hours": "24시간",
    "phone": "010 2392 1978",
    "kakao_id": "",
    "telegram_id": "",
    "thumbnail": "https://dkxm8.com/data/file/main/1332623111_STkEXe58_fd7ed45bb7f0041e0ca53daa91c478d5f8b63352.jpg",
    "area": "음성"
  },
  {
    "title": "[건마] 오송1인샵",
    "url": "https://dkxm8.com/profile_popup.php?idx=1022129&gubun=1",
    "description": "❤️20대 싸이즈 한국인❤️",
    "hours": "AM 11:00 ~ AM 05:00",
    "phone": "010-3494-7667",
    "kakao_id": "",
    "telegram_id": "",
    "thumbnail": "https://dkxm8.com/data/file/main/1728182871_GPiX0AtM_1f6f3bb9f7145ce0c93713c559ea634c9b1a5811.jpg",
    "area": "오송"
  },
  {
    "title": "[건마] 청담스웨디시",
    "url": "https://dkxm8.com/profile_popup.php?idx=1360205&gubun=1",
    "description": "한국 전원20대 오송/조치원",
    "hours": "오송역먹자골목 NF대거영입",
    "phone": "010-3988-3357단체환영",
    "kakao_id": "",
    "telegram_id": "",
    "thumbnail": "https://dkxm8.com/data/file/main/2669311878_9qkebNE0_25955ed522fc634cbaa80bbdefbaa0268e1e0b37.jpg",
    "area": "오송"
  },
  {
    "title": "[룸/풀사롱] 누드미러초이스",
    "url": "https://dkxm8.com/profile_popup.php?idx=1086199&gubun=1",
    "description": "부산 서면.연산.해운대",
    "hours": "24시간",
    "phone": "010-2702-3794",
    "kakao_id": "",
    "telegram_id": "",
    "thumbnail": "https://dkxm8.com/data/file/main/1728182871_ecvNI0yS_3b714fde9c5ac5a875398cc1307d98361a8d9e36.jpg",
    "area": "부산/경남"
  },
  {
    "title": "[룸/풀사롱] 매직미러한복풀",
    "url": "https://dkxm8.com/profile_popup.php?idx=1173930&gubun=1",
    "description": "✨❣️서면 연산 해운대❣️✨",
    "hours": "PM6:00~AM6:00",
    "phone": "010-4867-0506",
    "kakao_id": "",
    "telegram_id": "",
    "thumbnail": "https://dkxm8.com/data/file/main/1728182871_dWzqv4cE_0b9d0438c450f094928753d4f0125987a11111a2.jpg",
    "area": "부산/경남"
  },
  {
    "title": "[건마] 해운대퀄리티",
    "url": "https://dkxm8.com/profile_popup.php?idx=374859&gubun=1",
    "description": "부산 해운대",
    "hours": "24시간",
    "phone": "010-2790-8861",
    "kakao_id": "",
    "telegram_id": "",
    "thumbnail": "https://dkxm8.com/data/file/main/1728182447_B6NXh1aj_62adbd8f3029182b9e51c72f527d40842c54b5b3.jpg",
    "area": "부산/경남"
  },
  {
    "title": "[룸/풀사롱] 부산미러풀싸롱",
    "url": "https://dkxm8.com/profile_popup.php?idx=963174&gubun=1",
    "description": "❣️서면 해운대 연산❣️1위",
    "hours": "❣️010-9686-7315❣️24시",
    "phone": "❣️010-9686-7315❣️",
    "kakao_id": "",
    "telegram_id": "",
    "thumbnail": "https://dkxm8.com/data/file/main/2699961699_Gl3SrhMs_d5d3db4f7a9b21050c088b7bbb77fecd3745b2c8.jpg",
    "area": "부산"
  },
  {
    "title": "[건마] 해운대퀄리티",
    "url": "https://dkxm8.com/profile_popup.php?idx=374859&gubun=1",
    "description": "부산 해운대",
    "hours": "24시간",
    "phone": "010-2790-8861",
    "kakao_id": "",
    "telegram_id": "",
    "thumbnail": "https://dkxm8.com/data/file/main/1728182447_B6NXh1aj_62adbd8f3029182b9e51c72f527d40842c54b5b3.jpg",
    "area": "부산"
  },
  {
    "title": "[오피스텔] 해운대사이즈",
    "url": "https://dkxm8.com/profile_popup.php?idx=70319&gubun=1",
    "description": "해운대 인근",
    "hours": "PM 12:00 ~ AM 07:00",
    "phone": "010-4381-6355",
    "kakao_id": "",
    "telegram_id": "",
    "thumbnail": "https://dkxm8.com/data/file/main/1332623112_W1mDdqTK_4e608afa038ce3703f2ba1ce7d0849f4001c4add.jpg",
    "area": "부산"
  },
  {
    "title": "[룸/풀사롱] 퍼블릭ROOM",
    "url": "https://dkxm8.com/profile_popup.php?idx=179329&gubun=1",
    "description": "울산 남구 삼산동",
    "hours": "PM 07:30~ AM 03:00",
    "phone": "010-8265-1981",
    "kakao_id": "",
    "telegram_id": "",
    "thumbnail": "https://dkxm8.com/data/file/main/1728182447_ehrcRCbv_1ad15333491f27e334048db7035694a683aa0469.jpg",
    "area": "울산/양산"
  },
  {
    "title": "[룸/풀사롱] 1등은비실장",
    "url": "https://dkxm8.com/profile_popup.php?idx=1259601&gubun=1",
    "description": "울산 남구삼산동 현대백화점",
    "hours": "24시간",
    "phone": "010-8246-8073",
    "kakao_id": "",
    "telegram_id": "",
    "thumbnail": "https://dkxm8.com/data/file/main/2669311878_Yp1VXgCr_64ad1528ae866de0d58ce7268c51e6469a237646.jpg",
    "area": "울산/양산"
  },
  {
    "title": "[오피스텔] 콜라",
    "url": "https://dkxm8.com/profile_popup.php?idx=958766&gubun=1",
    "description": "울산 삼산동",
    "hours": "2:00PM~04:00 AM",
    "phone": "010-8305-4124",
    "kakao_id": "",
    "telegram_id": "",
    "thumbnail": "https://dkxm8.com/data/file/main/1332623118_ei8zNwq5_519602698adb953c21eab16bb7ae04dd5d81e165.jpg",
    "area": "울산/양산"
  },
  {
    "title": "[룸/풀사롱] 강남미러풀싸롱",
    "url": "https://dkxm8.com/profile_popup.php?idx=189823&gubun=1",
    "description": "✡️매직미러✡️한소희실장✡️",
    "hours": "24시✡️010-9755-4905",
    "phone": "010-9755-4905",
    "kakao_id": "",
    "telegram_id": "",
    "thumbnail": "https://dkxm8.com/data/file/main/1728182871_soKhj0i1_af9bcca38dfda0a81230e510e67654b560ed6571.jpg",
    "area": "서울/강남"
  },
  {
    "title": "[룸/풀사롱] 강남베리앤굿",
    "url": "https://dkxm8.com/profile_popup.php?idx=778917&gubun=1",
    "description": "서울 강남",
    "hours": "PM 18:00 ~ AM 06:00",
    "phone": "010-5939-1509",
    "kakao_id": "",
    "telegram_id": "",
    "thumbnail": "https://dkxm8.com/data/file/main/1728182871_Q9VT6Yn8_93b7daa6088bf3d18d0d824b1df8488b5c461242.gif",
    "area": "서울/강남"
  },
  {
    "title": "[룸/풀사롱] 매직미러풀싸롱",
    "url": "https://dkxm8.com/profile_popup.php?idx=1041424&gubun=1",
    "description": "❤️강남 야구장❤매직미러 풀❤",
    "hours": "❤️PM18:00 ~AM06:00❤",
    "phone": "❤️010-4885-3541❤️",
    "kakao_id": "",
    "telegram_id": "",
    "thumbnail": "https://dkxm8.com/data/file/main/1728182447_731lVfRP_e8d0911c8fed9f479515c409665482dd60c0ad3a.jpg",
    "area": "서울/강남"
  },
  {
    "title": "[룸/풀사롱] 필독",
    "url": "https://dkxm8.com/profile_popup.php?idx=648318&gubun=1",
    "description": "❌ 한번만 ❌읽어주세요✅",
    "hours": "하이퍼블릭",
    "phone": "010-9567-5872",
    "kakao_id": "",
    "telegram_id": "",
    "thumbnail": "https://dkxm8.com/data/file/main/1728182447_8jEqZw7p_53951239b23fa09f2a4f67fa898a64925ce06283.jpg",
    "area": "강남"
  },
  {
    "title": "[룸/풀사롱] 강남미러풀싸롱",
    "url": "https://dkxm8.com/profile_popup.php?idx=189823&gubun=1",
    "description": "✡️매직미러✡️한소희실장✡️",
    "hours": "24시✡️010-9755-4905",
    "phone": "010-9755-4905",
    "kakao_id": "",
    "telegram_id": "",
    "thumbnail": "https://dkxm8.com/data/file/main/1728182871_soKhj0i1_af9bcca38dfda0a81230e510e67654b560ed6571.jpg",
    "area": "강남"
  },
  {
    "title": "[룸/풀사롱] 매직미러풀싸롱",
    "url": "https://dkxm8.com/profile_popup.php?idx=1041424&gubun=1",
    "description": "❤️강남 야구장❤매직미러 풀❤",
    "hours": "❤️PM18:00 ~AM06:00❤",
    "phone": "❤️010-4885-3541❤️",
    "kakao_id": "",
    "telegram_id": "",
    "thumbnail": "https://dkxm8.com/data/file/main/1728182447_731lVfRP_e8d0911c8fed9f479515c409665482dd60c0ad3a.jpg",
    "area": "강남"
  },
  {
    "title": "[건마] 지중해스웨디시",
    "url": "https://dkxm8.com/profile_popup.php?idx=1311519&gubun=1",
    "description": "강동구 천호동",
    "hours": "오전11:00~오전5:00",
    "phone": "010-7776-6885",
    "kakao_id": "",
    "telegram_id": "",
    "thumbnail": "https://dkxm8.com/data/file/main/1502831921_w8ZBUq5E_391d1b6c574507e89aeb27035721bd011e044b97.jpg",
    "area": "강동"
  },
  {
    "title": "[휴게텔] 단밤",
    "url": "https://dkxm8.com/profile_popup.php?idx=1166080&gubun=1",
    "description": "서울 관악 신림",
    "hours": "AM 11:30 ~ AM 05:30",
    "phone": "010-7357-2912",
    "kakao_id": "",
    "telegram_id": "",
    "thumbnail": "https://dkxm8.com/data/file/main/2699961699_SrnWGZby_8368b36080c23faec0eeacb56c0985b05711d890.jpg",
    "area": "관악"
  },
  {
    "title": "[휴게텔] 착한가게",
    "url": "https://dkxm8.com/profile_popup.php?idx=1347765&gubun=1",
    "description": "서울 신림",
    "hours": "AM 11:30 - AM 06:00",
    "phone": "010-6555-4804",
    "kakao_id": "",
    "telegram_id": "",
    "thumbnail": "https://dkxm8.com/data/file/main/1728182871_dTIEKuCA_1d6d3c0e487c40f9495411de5479e7d32d07cb8a.jpg",
    "area": "관악"
  },
  {
    "title": "[건마] 아우라스웨디시",
    "url": "https://dkxm8.com/profile_popup.php?idx=1300679&gubun=1",
    "description": "서울시 도봉구 창동",
    "hours": "오전11시~오전5시",
    "phone": "010-8051-5885",
    "kakao_id": "",
    "telegram_id": "",
    "thumbnail": "https://dkxm8.com/data/file/main/1502831880_F5TRSk38_9e3827596189062d2ea59d0d2e0941bb61f165d7.jpg",
    "area": "도봉"
  },
  {
    "title": "[건마] 클로버스웨디",
    "url": "https://dkxm8.com/profile_popup.php?idx=1179889&gubun=1",
    "description": "동대문구 청량리",
    "hours": "AM 11:00 ~ AM 05:00",
    "phone": "010-5731-1012",
    "kakao_id": "",
    "telegram_id": "",
    "thumbnail": "https://dkxm8.com/data/file/main/1728182871_Ij2k0eyC_ab932cc912b7764aaa64ef710dd4ddfeabf1ea3a.jpg",
    "area": "동대문"
  },
  {
    "title": "[건마] 마포S스파",
    "url": "https://dkxm8.com/profile_popup.php?idx=1199300&gubun=1",
    "description": "서울 마포",
    "hours": "AM 11:00 ~ AM 05:00",
    "phone": "010-7553-3678",
    "kakao_id": "",
    "telegram_id": "",
    "thumbnail": "https://dkxm8.com/data/file/main/1728182871_czvSM40s_b62ad7d366c1fad7b9d8cbe527bde6d816796b2e.jpg",
    "area": "마포"
  },
  {
    "title": "[건마] 모카스파",
    "url": "https://dkxm8.com/profile_popup.php?idx=996112&gubun=1",
    "description": "송파구 방이동 먹자골목",
    "hours": "24시간 연중무휴",
    "phone": "010-6531-9531",
    "kakao_id": "",
    "telegram_id": "",
    "thumbnail": "https://dkxm8.com/data/file/main/1502831921_6JsOAf0h_a2713b7eff14071c3e6b8d82088793a0c8787dcd.jpg",
    "area": "송파"
  },
  {
    "title": "[건마] 잠실인스타스파",
    "url": "https://dkxm8.com/profile_popup.php?idx=1299402&gubun=1",
    "description": "전원한국매니저",
    "hours": "AM 9:00 ~ AM 06:00",
    "phone": "010-4865-6011",
    "kakao_id": "",
    "telegram_id": "",
    "thumbnail": "https://dkxm8.com/data/file/main/1502831880_CU9hduRL_826c830ebf3554140dd12448e566661f3653c252.jpg",
    "area": "송파"
  },
  {
    "title": "[건마] 당산M스파",
    "url": "https://dkxm8.com/profile_popup.php?idx=649297&gubun=1",
    "description": "당산역 2번출구 전방.",
    "hours": "24시간 연중 무휴",
    "phone": "010-5736-8477",
    "kakao_id": "",
    "telegram_id": "",
    "thumbnail": "https://dkxm8.com/data/file/main/1728182871_2EcwBOAW_7911b4e5b9f53e3a92ec292450a2c381b9f55ecd.gif",
    "area": "영등포"
  },
  {
    "title": "[휴게텔] 샷",
    "url": "https://dkxm8.com/profile_popup.php?idx=648341&gubun=1",
    "description": "❤️❤️평택대부근❤️이쁜NF영입❤️❤️",
    "hours": "❤️❤️❤️❤️낮1시 - 새벽4시❤️❤️❤️",
    "phone": "❤️❤️❤️010-8190-2253❤️❤️❤️",
    "kakao_id": "",
    "telegram_id": "",
    "thumbnail": "https://dkxm8.com/data/file/main/1728182871_ah8XjViS_def511d30e413a7a73a292083f0143182f878197.jpg",
    "area": "인천/경기"
  },
  {
    "title": "[휴게텔] 비타민",
    "url": "https://dkxm8.com/profile_popup.php?idx=649415&gubun=1",
    "description": "⭐평택시동삭동⭐NF영입⭐",
    "hours": "⭐낮1시~새벽4시⭐",
    "phone": "⭐010-2765-0578⭐",
    "kakao_id": "",
    "telegram_id": "",
    "thumbnail": "https://dkxm8.com/data/file/main/1728182871_YaBKTnz8_9247dc6ddabf6f0ffad06cc7c20e44b3a8a767e1.jpg",
    "area": "인천/경기"
  },
  {
    "title": "[휴게텔] 즐달",
    "url": "https://dkxm8.com/profile_popup.php?idx=648336&gubun=1",
    "description": "❤️❤️평택대부근❤️❤️❤️추천업소❤️❤️",
    "hours": "❤️❤️❤️❤️낮1시 - 새벽4시❤️❤️❤️",
    "phone": "❤️❤️❤️010-8190-2253❤️❤️❤️",
    "kakao_id": "",
    "telegram_id": "",
    "thumbnail": "https://dkxm8.com/data/file/main/1728182447_yvKktI6z_bb7fb7111158d3a492ad9446b5799b2163f8e04a.jpg",
    "area": "인천/경기"
  },
  {
    "title": "[휴게텔] 복숭아",
    "url": "https://dkxm8.com/profile_popup.php?idx=649108&gubun=1",
    "description": "부평역도보5분거리(바베큐광장)",
    "hours": "PM 12:00 ~ AM 05:00",
    "phone": "010-8072-4895",
    "kakao_id": "",
    "telegram_id": "",
    "thumbnail": "https://dkxm8.com/data/file/main/1728182871_J42KRVG9_3e3c64cd9ef6fb8cec27354113d56ff931c3c443.jpg",
    "area": "인천"
  },
  {
    "title": "[휴게텔] 자두",
    "url": "https://dkxm8.com/profile_popup.php?idx=1090724&gubun=1",
    "description": "부평구 바베큐광장",
    "hours": "PM 02:00 ~ AM 05:00",
    "phone": "010-5848-7600",
    "kakao_id": "",
    "telegram_id": "",
    "thumbnail": "https://dkxm8.com/data/file/main/1728182871_i5z06pf7_c01491d6cf4a45e2936498ba5ae331314b8e7000.jpg",
    "area": "인천"
  },
  {
    "title": "[유흥주점] 송도여신바",
    "url": "https://dkxm8.com/profile_popup.php?idx=1112217&gubun=1",
    "description": "인천광역시 연수구 송도동",
    "hours": "PM7:00~AM4:00",
    "phone": "010-7646-4350",
    "kakao_id": "",
    "telegram_id": "",
    "thumbnail": "https://dkxm8.com/data/file/main/1728182447_FS1YqPmD_03cf9fb929f9fb5362a905bdbd6d496c5c97ccde.jpg",
    "area": "인천"
  },
  {
    "title": "[휴게텔] 새콤달콤",
    "url": "https://dkxm8.com/profile_popup.php?idx=154074&gubun=1",
    "description": "수원시청역 부근",
    "hours": "12:00 ~ 05:00",
    "phone": "010-8276-2111",
    "kakao_id": "",
    "telegram_id": "",
    "thumbnail": "https://dkxm8.com/data/file/main/2699961699_pI643sOl_7546cae07ddd6dfca19d5863b65c058630142420.jpg",
    "area": "수원"
  },
  {
    "title": "[휴게텔] YSL생로랑",
    "url": "https://dkxm8.com/profile_popup.php?idx=1303475&gubun=1",
    "description": "⭐수원⭐와꾸파 사이즈 보장⭐",
    "hours": "PM 13:00 ~ AM 05:00",
    "phone": "010-5901-3587",
    "kakao_id": "",
    "telegram_id": "",
    "thumbnail": "https://dkxm8.com/data/file/main/1332623114_gzZhnP0X_ab042e13ccb8517e6a0b7448b9573ab64a0d9559.jpg",
    "area": "수원"
  },
  {
    "title": "[휴게텔] 퍼스트",
    "url": "https://dkxm8.com/profile_popup.php?idx=1348710&gubun=1",
    "description": "❤️수원역 복귀 이벤트❤️",
    "hours": "13:00 ~ 05:00",
    "phone": "010-7926-6660",
    "kakao_id": "",
    "telegram_id": "",
    "thumbnail": "https://dkxm8.com/data/file/main/1332623112_v1Ld2te9_90d9e37dd23987c1bec940850081ef54d718e90b.jpg",
    "area": "수원"
  }
]