[
  {
    "title": "[룸/풀사롱] 대전1등룸싸롱",
    "url": "https://dkxm8.com/profile_popup.php?idx=648513&gubun=1",
    "description": "⭕️⭕️⭕️⭕️⭕️⭕️⭕️",
    "phone": "010-5733-8437",
    "kakao_id": "",
    "telegram_id": "",
    "hours": "✡️⛔24시 연중무휴⛔✡️",
    "thumbnail": "https://dkxm8.com/data/file/main/1332623107_WVHGfh0u_3dbda7ba09d6e2bf0b72ce16b5680a74e729ee34.jpg",
    "area": "대전",
    "region": "대전/충청"
  },
  {
    "title": "[룸/풀사롱] 예쁜하린실장",
    "url": "https://dkxm8.com/profile_popup.php?idx=648441&gubun=1",
    "description": "⛔➿✅유성봉명동✅➿⛔",
    "phone": "010-8412-1753",
    "kakao_id": "",
    "telegram_id": "",
    "hours": "❤️365일❤️24시간❤️",
    "thumbnail": "https://dkxm8.com/data/file/main/1332623114_Pp9vQ7fk_eeedba71e92a6a57323bd2018c7d21e9124ef60e.jpg",
    "area": "대전",
    "region": "대전/충청"
  },
  {
    "title": "[건마] 후궁",
    "url": "https://dkxm8.com/profile_popup.php?idx=1054093&gubun=1",
    "description": "❤️NF민영❤️극하드올탈❤️",
    "phone": "⭐010-3948-5477⭐",
    "kakao_id": "",
    "telegram_id": "",
    "hours": "⭐️12:00~05:00⭐️",
    "thumbnail": "https://dkxm8.com/data/file/main/1728182447_qOBMyShv_c46f92dc4e01ba8f74652af55327f7745b14dcf7.jpg",
    "area": "대전",
    "region": "대전/충청"
  },
  {
    "title": "[건마] 포인트",
    "url": "https://dkxm8.com/profile_popup.php?idx=649051&gubun=1",
    "description": "❤️와꾸최강*러시아/ 태국❤️",
    "phone": "⭐010-4996-4661",
    "kakao_id": "",
    "telegram_id": "",
    "hours": "♥장수와꾸맛집/스페셜코스♥NF영입",
    "thumbnail": "https://dkxm8.com/data/file/main/1728182871_4HzPutWj_33910f6d56896dc4faaef8f2926961576c63e2c5.jpg",
    "area": "대전",
    "region": "대전/충청"
  },
  {
    "title": "[건마] 만져줘녹여줘",
    "url": "https://dkxm8.com/profile_popup.php?idx=1363563&gubun=1",
    "description": "✨상상이 현실이 되는 마법✨",
    "phone": "010-4831-1052",
    "kakao_id": "",
    "telegram_id": "",
    "hours": "⭕소망연두⭕녹여드릴게요",
    "thumbnail": "https://dkxm8.com/data/file/main/2669311878_gH94zuMG_096c256ac0a8f9a37ed66e33be88fb909d53e0b7.jpg",
    "area": "대전",
    "region": "대전/충청"
  },
  {
    "title": "[오피] 오마이걸",
    "url": "https://dkxm8.com/profile_popup.php?idx=650739&gubun=1",
    "description": "❤️ 또 물보라를 일으켜 ❤️",
    "phone": "010-5810-3245",
    "kakao_id": "",
    "telegram_id": "",
    "hours": "PM12:00 ~ AM04:00❤️",
    "thumbnail": "https://dkxm8.com/data/file/main/1728182871_ut4vly6E_893c8a6d9339e9ea0d7348ab1cf012412d4c114c.gif",
    "area": "대전",
    "region": "대전/충청"
  },
  {
    "title": "[주점] KTV만세대표",
    "url": "https://dkxm8.com/profile_popup.php?idx=1335426&gubun=1",
    "description": "✨재방문1위✨무한초이스✨",
    "phone": "☀️010-9515-8978☀️",
    "kakao_id": "",
    "telegram_id": "",
    "hours": "✴️(목)24시 정상영업✴️",
    "thumbnail": "https://dkxm8.com/data/file/main/1502832061_gPNTQZpG_fc8d11262c787e81fcfd7340cba434b44da3c5f7.jpg",
    "area": "대전",
    "region": "대전/충청"
  },
  {
    "title": "[주점] 텐프로K실장",
    "url": "https://dkxm8.com/profile_popup.php?idx=1326194&gubun=1",
    "description": "⭐유흥계의 에르메스⭐TOP❤️",
    "phone": "⛔010-2417-7954⛔",
    "kakao_id": "",
    "telegram_id": "",
    "hours": "✅24시간 문의✅",
    "thumbnail": "https://dkxm8.com/data/file/main/2699961655_79dEBjxv_041c501777470c4c579ecf5b61e37ad12b86d980.jpg",
    "area": "대전",
    "region": "대전/충청"
  },
  {
    "title": "[휴게텔] 롤렉스",
    "url": "https://dkxm8.com/profile_popup.php?idx=1147796&gubun=1",
    "description": "❤️봉명동❤️와꾸족 드루왕❤️",
    "phone": "❤️010-2133-9839❤️",
    "kakao_id": "",
    "telegram_id": "",
    "hours": "❤️PM13:00~AM05:00❤️",
    "thumbnail": "https://dkxm8.com/data/file/main/1728182871_vAe17d4T_a4c2ee5a7a8f7afafcfdeec346b2ee6ce44ba1ae.jpg",
    "area": "대전",
    "region": "대전/충청"
  },
  {
    "title": "[주점] 하이퍼블릭",
    "url": "https://dkxm8.com/profile_popup.php?idx=1337258&gubun=1",
    "description": "♀️대전 사이즈 마인드1등♀️",
    "phone": "⛔010-3990-5125⛔",
    "kakao_id": "",
    "telegram_id": "",
    "hours": "✅24시간 항시 문의✅",
    "thumbnail": "https://dkxm8.com/data/file/main/2699961699_5UQRnAz2_14fb3e3a1db1bce9e4b46b645904a5b68a559c61.jpg",
    "area": "대전",
    "region": "대전/충청"
  },
  {
    "title": "[휴게텔] 코코넛",
    "url": "https://dkxm8.com/profile_popup.php?idx=1358129&gubun=1",
    "description": "❤️유성❤️쫀득쫀득이쁜영계❤️",
    "phone": "010-5627-2540",
    "kakao_id": "",
    "telegram_id": "",
    "hours": "오후1시~오전5시",
    "thumbnail": "https://dkxm8.com/data/file/main/1332623111_4PUzcOnv_a247ec7a609696e001b05c6700738a0da1873005.jpg",
    "area": "대전",
    "region": "대전/충청"
  },
  {
    "title": "[안마] BJ안마",
    "url": "https://dkxm8.com/profile_popup.php?idx=1050621&gubun=1",
    "description": "❤️안마 업계 랭킹⭐TOP⭐",
    "phone": "❤️010-2320-9221❤️",
    "kakao_id": "",
    "telegram_id": "",
    "hours": "✅24시간 정상영업✅",
    "thumbnail": "https://dkxm8.com/data/file/main/1728182871_AR6LZ4QO_c1374dadbb23aa6c51771f6852472de47c037266.jpg",
    "area": "대전",
    "region": "대전/충청"
  },
  {
    "title": "[안마] 청담",
    "url": "https://dkxm8.com/profile_popup.php?idx=668736&gubun=1",
    "description": "✨연예인급라인업✨황제의자✨",
    "phone": "⛔010-3938-8654⛔",
    "kakao_id": "",
    "telegram_id": "",
    "hours": "☀️(목)24시 정상영업☀️",
    "thumbnail": "https://dkxm8.com/data/file/main/1728182871_rq7d4XGm_6806fc122c3aed8f913c67119ef4a39d73e1bc6b.gif",
    "area": "대전",
    "region": "대전/충청"
  },
  {
    "title": "[안마] 일프로안마",
    "url": "https://dkxm8.com/profile_popup.php?idx=1219789&gubun=1",
    "description": "❤️NEW 여신 와꾸 영입⭐",
    "phone": "❤️010-7904-0690❤️",
    "kakao_id": "",
    "telegram_id": "",
    "hours": "✅24시간 정상영업✅",
    "thumbnail": "https://dkxm8.com/data/file/main/1728182871_u8dVAH4R_cd973c0cff20dd038dbc80eb805002730e32eabd.jpg",
    "area": "대전",
    "region": "대전/충청"
  },
  {
    "title": "[휴게텔] 킹스맨",
    "url": "https://dkxm8.com/profile_popup.php?idx=648914&gubun=1",
    "description": "관평동.송강동.신탄.유성.세종",
    "phone": "☎ 010-3923-3834 ☎",
    "kakao_id": "",
    "telegram_id": "",
    "hours": "❤️PM 1:30~AM 2:00❤️",
    "thumbnail": "https://dkxm8.com/data/file/main/1728182447_EanZwOB7_f7ce8eb7b35df5c3bd9258162d08d8f9ede354f0.jpg",
    "area": "대전",
    "region": "대전/충청"
  },
  {
    "title": "[건마] S스웨디시",
    "url": "https://dkxm8.com/profile_popup.php?idx=531333&gubun=1",
    "description": "❤️대박할인이벤트❤️단체환영",
    "phone": "⭕010-4996-1945⭕",
    "kakao_id": "",
    "telegram_id": "",
    "hours": "10:30예약 하드스웨끝판왕",
    "thumbnail": "https://dkxm8.com/data/file/main/1728182447_pzIM3clv_81169b8d937a90d9e2c89a3b4129ce5490052c75.jpg",
    "area": "대전",
    "region": "대전/충청"
  },
  {
    "title": "[휴게텔] 기생",
    "url": "https://dkxm8.com/profile_popup.php?idx=1297756&gubun=1",
    "description": "❤️기생 오픈❤️ 중구전원한국",
    "phone": "010 2223 8905 ◠‿◠ ❤",
    "kakao_id": "",
    "telegram_id": "",
    "hours": "⏰PM 01:00 ~ AM 4:00⏰",
    "thumbnail": "https://dkxm8.com/data/file/main/1728182871_3XJhjwfU_fcd3630f44fd34d4b4c10501a808d349ca71cea3.jpg",
    "area": "대전",
    "region": "대전/충청"
  },
  {
    "title": "[휴게텔] 굿나잇",
    "url": "https://dkxm8.com/profile_popup.php?idx=1303954&gubun=1",
    "description": "✅중구청역✅선화❤️대흥❤️",
    "phone": "010-5922-7795",
    "kakao_id": "",
    "telegram_id": "",
    "hours": "PM01:00~AM05:00",
    "thumbnail": "https://dkxm8.com/data/file/main/1502832061_jR5oqSYx_b51968048b3359f8ffaffedd8486b0f708b9eb13.jpg",
    "area": "대전",
    "region": "대전/충청"
  },
  {
    "title": "[건마] 유앤미",
    "url": "https://dkxm8.com/profile_popup.php?idx=648936&gubun=1",
    "description": "관평동.송강동.신탄.유성.세종",
    "phone": "＊042-671-1230＊",
    "kakao_id": "",
    "telegram_id": "",
    "hours": "*PM 2:00 ~ AM 2:00*",
    "thumbnail": "https://dkxm8.com/data/file/main/1728182871_KBue3tQy_552431d5e7c3470867a4b941e699cdab0d323ae3.gif",
    "area": "대전",
    "region": "대전/충청"
  },
  {
    "title": "[건마] X고트1인샵",
    "url": "https://dkxm8.com/profile_popup.php?idx=1203589&gubun=1",
    "description": "FWB수컷본능♥︎바람피고싶은날",
    "phone": "010-8405-5883",
    "kakao_id": "",
    "telegram_id": "",
    "hours": "Ace에비앙❤유성봉명❤후끈코스",
    "thumbnail": "https://dkxm8.com/data/file/main/1502832061_imslHAre_d8309db278ba5801c41d3b590e69c11d4a56ee3f.jpg",
    "area": "대전",
    "region": "대전/충청"
  },
  {
    "title": "[건마] 시녀1인샵",
    "url": "https://dkxm8.com/profile_popup.php?idx=1037922&gubun=1",
    "description": "주체할수없는배덕감♥︎그녀의스킬",
    "phone": "010-8405-5883",
    "kakao_id": "",
    "telegram_id": "",
    "hours": "Ace에비앙❤유성봉명❤후끈코스",
    "thumbnail": "https://dkxm8.com/img/temp_thum.jpg",
    "area": "대전",
    "region": "대전/충청"
  },
  {
    "title": "[건마] 밝혀줘",
    "url": "https://dkxm8.com/profile_popup.php?idx=694890&gubun=1",
    "description": "❤️8출❤️단체,개인드루와아",
    "phone": "010-5939-9609",
    "kakao_id": "",
    "telegram_id": "",
    "hours": "♥연중무휴 언제든 연락컴온♥",
    "thumbnail": "https://dkxm8.com/data/file/main/2669311878_AjSzWc74_f08e09868703cc711ffc48660a59863c880664fa.jpg",
    "area": "대전",
    "region": "대전/충청"
  },
  {
    "title": "[건마] 후궁",
    "url": "https://dkxm8.com/profile_popup.php?idx=1054093&gubun=1",
    "description": "❤️NF민영❤️극하드올탈❤️",
    "phone": "⭐010-3948-5477⭐",
    "kakao_id": "",
    "telegram_id": "",
    "hours": "⭐️12:00~05:00⭐️",
    "thumbnail": "https://dkxm8.com/data/file/main/1728182447_qOBMyShv_c46f92dc4e01ba8f74652af55327f7745b14dcf7.jpg",
    "area": "대전",
    "region": "대전/충청"
  },
  {
    "title": "[건마] 홍콩중국마사지",
    "url": "https://dkxm8.com/profile_popup.php?idx=943695&gubun=1",
    "description": "대전 서구 탄방동",
    "phone": "010-2407-5643",
    "kakao_id": "",
    "telegram_id": "",
    "hours": "24시간",
    "thumbnail": "https://dkxm8.com/data/file/main/1728182871_9VAsBZ0j_a438252602e404b0fd856b9116232d5854e79beb.jpg",
    "area": "대전",
    "region": "대전/충청"
  },
  {
    "title": "[건마] 첫사랑테라피",
    "url": "https://dkxm8.com/profile_popup.php?idx=1110007&gubun=1",
    "description": "❤️한국❤️둔산탄방갈마괴정❤️",
    "phone": "010-8682-7775",
    "kakao_id": "",
    "telegram_id": "",
    "hours": "AM 11:00 ~ AM 06:00",
    "thumbnail": "https://dkxm8.com/data/file/main/1728182447_8N3ghtbm_e379ff80c936d88287f15bfd5a24ac9dea83a19b.jpg",
    "area": "대전",
    "region": "대전/충청"
  },
  {
    "title": "[안마] 슈퍼맨",
    "url": "https://dkxm8.com/profile_popup.php?idx=1099478&gubun=1",
    "description": "❤️대전❤️유성호텔❤️봉명동",
    "phone": "010-4833-0098",
    "kakao_id": "",
    "telegram_id": "",
    "hours": "오전10:00 ~ 새벽5:00",
    "thumbnail": "https://dkxm8.com/data/file/main/1728182871_92HgDYJj_4c3e5ca033ad4760997c1db83db19f38269304c9.jpg",
    "area": "대전",
    "region": "대전/충청"
  },
  {
    "title": "[건마] 타임1인샵",
    "url": "https://dkxm8.com/profile_popup.php?idx=693055&gubun=1",
    "description": "❤️둔산.월평❤️NF천국v❤️",
    "phone": "❤️010-5727-1233❤️",
    "kakao_id": "",
    "telegram_id": "",
    "hours": "❤️오전11시~새벽5시❤️",
    "thumbnail": "https://dkxm8.com/data/file/main/1728182871_5vdGyWVC_2e22fa7a8ecc6b3b21b9595fd30ace7f41a59c92.jpg",
    "area": "대전",
    "region": "대전/충청"
  },
  {
    "title": "[건마] 짧은치마",
    "url": "https://dkxm8.com/profile_popup.php?idx=1155507&gubun=1",
    "description": "관평동 신탄진 송강동",
    "phone": "010-5853-8208",
    "kakao_id": "",
    "telegram_id": "",
    "hours": "24시간",
    "thumbnail": "https://dkxm8.com/data/file/main/1728182871_1cPpOLsB_ede5870b53e23a95bdb705fd365250333f8b4177.jpg",
    "area": "대전",
    "region": "대전/충청"
  },
  {
    "title": "[건마] 압구정스웨디시",
    "url": "https://dkxm8.com/profile_popup.php?idx=1108819&gubun=1",
    "description": "ACE 풀 출근~",
    "phone": "010-6553-2560",
    "kakao_id": "",
    "telegram_id": "",
    "hours": "둔산동 20대 NF천국",
    "thumbnail": "https://dkxm8.com/data/file/main/1728182871_cWUtRQ62_81b65e96ec6d40764253f901c53397f09795f5ed.jpg",
    "area": "대전",
    "region": "대전/충청"
  },
  {
    "title": "[건마] 촉촉 1인샵",
    "url": "https://dkxm8.com/profile_popup.php?idx=1169466&gubun=1",
    "description": "둔산 시청역 맛도리",
    "phone": "010-6553-2560",
    "kakao_id": "",
    "telegram_id": "",
    "hours": "PM 12:00 ~ AM 3:00",
    "thumbnail": "https://dkxm8.com/data/file/main/1728182871_VWRxgI0o_c0ec77ca2b54f8c540db1a076e021c02bc767340.jpg",
    "area": "대전",
    "region": "대전/충청"
  },
  {
    "title": "[건마] 황실부비부비",
    "url": "https://dkxm8.com/profile_popup.php?idx=649147&gubun=1",
    "description": "대전광역시 서구 둔산동",
    "phone": "010-8233-6435",
    "kakao_id": "",
    "telegram_id": "",
    "hours": "24시간",
    "thumbnail": "https://dkxm8.com/data/file/main/1502831880_iy63LzmJ_d593cba435d5339a25826b52105d99052d4f945b.jpg",
    "area": "대전",
    "region": "대전/충청"
  },
  {
    "title": "[건마] 밀크밀크마사지",
    "url": "https://dkxm8.com/profile_popup.php?idx=1227811&gubun=1",
    "description": "대전 탄방동",
    "phone": "010-2360-2687",
    "kakao_id": "",
    "telegram_id": "",
    "hours": "24시간",
    "thumbnail": "https://dkxm8.com/data/file/main/1728182447_mlGhKDNw_f71ec48e086e4511afd451f4bd7a8bbbf6dc7076.jpg",
    "area": "대전",
    "region": "대전/충청"
  },
  {
    "title": "[오피] 누드출장오피",
    "url": "https://dkxm8.com/profile_popup.php?idx=1240642&gubun=1",
    "description": "❤24시 실시간프로필 대전",
    "phone": "010-8258-9086",
    "kakao_id": "",
    "telegram_id": "",
    "hours": "24시간",
    "thumbnail": "https://dkxm8.com/data/file/main/1728182447_zalOrfXS_79de8e7de99da6def2b600ce1827fd44d16384cb.jpg",
    "area": "대전",
    "region": "대전/충청"
  },
  {
    "title": "[건마] 라온",
    "url": "https://dkxm8.com/profile_popup.php?idx=1075091&gubun=1",
    "description": "유성.관평동.송강.세종.신탄",
    "phone": "010-2115-3989",
    "kakao_id": "",
    "telegram_id": "",
    "hours": "PM 12:00 ~ AM 04:00",
    "thumbnail": "https://dkxm8.com/data/file/main/1728182447_fOWznxHe_595c889f37d094c56249aff766af5f4f026edfa3.jpg",
    "area": "대전",
    "region": "대전/충청"
  },
  {
    "title": "[건마] 소유스웨디시",
    "url": "https://dkxm8.com/profile_popup.php?idx=1332861&gubun=1",
    "description": "❤둔산동타임월드20대한국관리❤",
    "phone": "010-9354-8245",
    "kakao_id": "",
    "telegram_id": "",
    "hours": "목요일출석부 확인",
    "thumbnail": "https://dkxm8.com/data/file/main/2699961655_InWUE4Sy_18ecc8e6dcf9d852b8e709c7a6f2eb59df187379.jpg",
    "area": "대전",
    "region": "대전/충청"
  },
  {
    "title": "[휴게텔] 에이스",
    "url": "https://dkxm8.com/profile_popup.php?idx=648411&gubun=1",
    "description": "➿둔산동,시청역➿레전드사이즈",
    "phone": "➿010-2463-6567➿",
    "kakao_id": "",
    "telegram_id": "",
    "hours": "➿PM 01:00 AM 05:00➿",
    "thumbnail": "https://dkxm8.com/data/file/main/1502831902_4rgOpNuw_3407da430f37a035728a994f925ed532519dfaaa.jpg",
    "area": "대전",
    "region": "대전/충청"
  },
  {
    "title": "[건마] 앙큼한고양이",
    "url": "https://dkxm8.com/profile_popup.php?idx=1358953&gubun=1",
    "description": "❤️NF 보구가세요❤️",
    "phone": "010-8141-1519",
    "kakao_id": "",
    "telegram_id": "",
    "hours": "❤️10/9목 정상영업 ❤️",
    "thumbnail": "https://dkxm8.com/data/file/main/1332623111_1VGcy9Hu_c001559419220608a92fec3db8bc59179d6e3849.jpg",
    "area": "대전",
    "region": "대전/충청"
  },
  {
    "title": "[건마] 에스1인샵",
    "url": "https://dkxm8.com/profile_popup.php?idx=648553&gubun=1",
    "description": "❤️한국둔산탄방❤️100%실사",
    "phone": "010-4996-1945",
    "kakao_id": "",
    "telegram_id": "",
    "hours": "10:30예약 랜초3만할인",
    "thumbnail": "https://dkxm8.com/data/file/main/1728182447_ZC4wxGAD_ae0dcbd805ef90ce81c3b3bcbc19178b2ed042cc.jpg",
    "area": "대전",
    "region": "대전/충청"
  },
  {
    "title": "[휴게텔] 당근",
    "url": "https://dkxm8.com/profile_popup.php?idx=1301052&gubun=1",
    "description": "❤️NF 별이❤️연휴 정상영업",
    "phone": "✅010-3274-5639✅",
    "kakao_id": "",
    "telegram_id": "",
    "hours": "✅PM12:00 ~ AM 05:00✅",
    "thumbnail": "https://dkxm8.com/data/file/main/1502831880_Bu7pSwis_7db090626b21180e0776be6822947597ff40ea32.jpg",
    "area": "대전",
    "region": "대전/충청"
  },
  {
    "title": "[건마] 딥스웨디시",
    "url": "https://dkxm8.com/profile_popup.php?idx=648567&gubun=1",
    "description": "둔산✨전원한국20대✨",
    "phone": "✨010-7394-1347✨",
    "kakao_id": "",
    "telegram_id": "",
    "hours": "❤️PM03:00~AM 05:00❤️",
    "thumbnail": "https://dkxm8.com/data/file/main/1728182871_7Gy9ME2a_b5bec4c6f7d71c727fe2b8d638f66ad290733d2d.gif",
    "area": "대전",
    "region": "대전/충청"
  },
  {
    "title": "[오피] 백마오브레전드",
    "url": "https://dkxm8.com/profile_popup.php?idx=939693&gubun=1",
    "description": "❣️신규 왔어용 출장가능~❣️",
    "phone": "❣️010-8072-3942❣️",
    "kakao_id": "",
    "telegram_id": "",
    "hours": "❣PM14:30 ~AM 05:30❣️",
    "thumbnail": "https://dkxm8.com/data/file/main/1728182871_5jIAXWud_13cceaed57820bdb1b9c8661aa75fc114d2df8c9.jpg",
    "area": "대전",
    "region": "대전/충청"
  },
  {
    "title": "[건마] 비밀수업1인샵",
    "url": "https://dkxm8.com/profile_popup.php?idx=1084066&gubun=1",
    "description": "❤️유성온천역 인근❤️",
    "phone": "010-8327-5261",
    "kakao_id": "",
    "telegram_id": "",
    "hours": "연휴 정상영업 / NF+이쁜이 대잔치",
    "thumbnail": "https://dkxm8.com/data/file/main/1728182871_7BOesTzC_f8c4fd8b347aef9972ec5439accfd23dcb78c7cd.jpg",
    "area": "대전",
    "region": "대전/충청"
  },
  {
    "title": "[건마] 플러팅1인샵",
    "url": "https://dkxm8.com/profile_popup.php?idx=1209261&gubun=1",
    "description": "⭐유성 봉명동 온천역⭐",
    "phone": "❤️010-5619-5935❤️",
    "kakao_id": "",
    "telegram_id": "",
    "hours": "⭐대전 최고 라인업 출동⭐",
    "thumbnail": "https://dkxm8.com/data/file/main/1728182447_SvgF9A2L_f1bab94335e6564fe7243020ca282f659c643efb.jpg",
    "area": "대전",
    "region": "대전/충청"
  },
  {
    "title": "[건마] 달콤1인샵",
    "url": "https://dkxm8.com/profile_popup.php?idx=648484&gubun=1",
    "description": "❤️NF대량 영입❤️",
    "phone": "010-6558-1422",
    "kakao_id": "",
    "telegram_id": "",
    "hours": "AM 11:00 ~ AM 04:00",
    "thumbnail": "https://dkxm8.com/data/file/main/1728182871_4uldIP8g_eb20c545198ee95b0b2e4661172205f267fb4020.jpg",
    "area": "대전",
    "region": "대전/충청"
  },
  {
    "title": "[건마] 가인스웨디시",
    "url": "https://dkxm8.com/profile_popup.php?idx=648656&gubun=1",
    "description": "❤갈마♥NF다혜,가영♥",
    "phone": "010-2676-7548",
    "kakao_id": "",
    "telegram_id": "",
    "hours": "AM 11:30 ~ AM 04:00",
    "thumbnail": "https://dkxm8.com/data/file/main/1728182871_FJyUCzxn_b132e798ca0ed34ce2874325b6259a2517ccb908.gif",
    "area": "대전",
    "region": "대전/충청"
  },
  {
    "title": "[립카페] 벚꽃",
    "url": "https://dkxm8.com/profile_popup.php?idx=648268&gubun=1",
    "description": "둔산동 타임월드 부근",
    "phone": "010-8061-6611",
    "kakao_id": "",
    "telegram_id": "",
    "hours": "PM 12:00 ~ AM 00:00",
    "thumbnail": "https://dkxm8.com/data/file/main/1728182871_25ObhEYI_4d5beea493320cd2d9a2a2c5e88b6c58987ecc67.gif",
    "area": "대전",
    "region": "대전/충청"
  },
  {
    "title": "[오피] 에스",
    "url": "https://dkxm8.com/profile_popup.php?idx=849130&gubun=1",
    "description": "✅둔산 탄방✅100%실사✅✅✅",
    "phone": "010-4996-1945",
    "kakao_id": "",
    "telegram_id": "",
    "hours": "한국맛집 랜덤3만할인",
    "thumbnail": "https://dkxm8.com/data/file/main/1728182871_YCTicrRP_ca44ec402eb4fec9120d71629521722a31c0ccd2.jpg",
    "area": "대전",
    "region": "대전/충청"
  },
  {
    "title": "[건마] 버터스웨디시",
    "url": "https://dkxm8.com/profile_popup.php?idx=1260072&gubun=1",
    "description": "❤️봉명동❤️극하드 맛집!",
    "phone": "010-8244-5581",
    "kakao_id": "",
    "telegram_id": "",
    "hours": "AM 12:00 ~ AM 04:00",
    "thumbnail": "https://dkxm8.com/data/file/main/1728182447_qnAgPCZs_aeac7fee8c04d7ae4ffa349ce99e7c622088a74a.jpg",
    "area": "대전",
    "region": "대전/충청"
  },
  {
    "title": "[건마] 더마치테라피",
    "url": "https://dkxm8.com/profile_popup.php?idx=896430&gubun=1",
    "description": "❤️NF영입❤️유성 NO.1",
    "phone": "✨010-4682-3930✨",
    "kakao_id": "",
    "telegram_id": "",
    "hours": "✨AM11:00~AM04:00✨",
    "thumbnail": "https://dkxm8.com/data/file/main/1728182447_9LYKvhUz_ec196d0f0718674f5fce87a779bdd21b2a2ee7f0.jpg",
    "area": "대전",
    "region": "대전/충청"
  },
  {
    "title": "[건마] 크림스웨디시",
    "url": "https://dkxm8.com/profile_popup.php?idx=700629&gubun=1",
    "description": "관저예쁜NF cream☘️⏺✨",
    "phone": "⭐010 7631 4033⭐✈️",
    "kakao_id": "",
    "telegram_id": "",
    "hours": "⁂목욜⁂유라 수현 소라",
    "thumbnail": "https://dkxm8.com/data/file/main/2699961636_Oonwazdj_d0c0765ebc1ee6cd32b2adb49486efad8a55047e.jpg",
    "area": "대전",
    "region": "대전/충청"
  },
  {
    "title": "[휴게텔] 투데이",
    "url": "https://dkxm8.com/profile_popup.php?idx=648472&gubun=1",
    "description": "❤️애널가능❤️유성온천❤️",
    "phone": "❤️❤️❤️010-3922-8382",
    "kakao_id": "",
    "telegram_id": "",
    "hours": "❤️❤️pm2시~am4시❤️❤️",
    "thumbnail": "https://dkxm8.com/data/file/main/2699961655_WfRCkq9r_dcd650fa904e13d66831b981e3113efe156593c8.jpg",
    "area": "대전",
    "region": "대전/충청"
  },
  {
    "title": "[건마] 데이트 1인샵",
    "url": "https://dkxm8.com/profile_popup.php?idx=1296559&gubun=1",
    "description": "⛔최고의서비스 마인드미쳤다⛔",
    "phone": "010-4838-0594",
    "kakao_id": "",
    "telegram_id": "",
    "hours": "✡️대전 중구 대흥.선화.탄방✡️",
    "thumbnail": "https://dkxm8.com/data/file/main/1502831947_EIsRVXte_648e7f1bf9f9cf72a2780a257953ec982ffb67ab.jpg",
    "area": "대전",
    "region": "대전/충청"
  },
  {
    "title": "[립카페] 요거트1인샵",
    "url": "https://dkxm8.com/profile_popup.php?idx=1194298&gubun=1",
    "description": "❤️중구)대흥,선화,오류동❤️",
    "phone": "010-4838-0594",
    "kakao_id": "",
    "telegram_id": "",
    "hours": "❤️NF미주 업초녀❤️",
    "thumbnail": "https://dkxm8.com/data/file/main/1728182871_D5RhPJfT_419a214e2aa051a590b4a78d997fa80a1ee33aaa.jpg",
    "area": "대전",
    "region": "대전/충청"
  },
  {
    "title": "[안마] 스마일",
    "url": "https://dkxm8.com/profile_popup.php?idx=1298553&gubun=1",
    "description": "⭐대전1등⭐최고유명업소⭐",
    "phone": "✅010-5894-6537✅",
    "kakao_id": "",
    "telegram_id": "",
    "hours": "✴️연중무휴 24시영업✴️",
    "thumbnail": "https://dkxm8.com/data/file/main/1502831880_KfM6ZAri_f3ab905db2b7ba73d6360ef53da7dc5f3cf84a46.jpg",
    "area": "대전",
    "region": "대전/충청"
  },
  {
    "title": "[안마] 스페셜안마",
    "url": "https://dkxm8.com/profile_popup.php?idx=1108173&gubun=1",
    "description": "❤️단체환영❤️유성❤️",
    "phone": "010-5726-7003",
    "kakao_id": "",
    "telegram_id": "",
    "hours": "☀️스폐셜☀️✴️영업중✴️",
    "thumbnail": "https://dkxm8.com/data/file/main/1728182447_rRXOn62i_c97a3441442696c0d0ce365f879246ec19af9ec5.jpg",
    "area": "대전",
    "region": "대전/충청"
  },
  {
    "title": "[건마] 더봄스웨디시",
    "url": "https://dkxm8.com/profile_popup.php?idx=649006&gubun=1",
    "description": "♥탄방동 전원한국하드.소프트♥",
    "phone": "010-6466-2234",
    "kakao_id": "",
    "telegram_id": "",
    "hours": "오후12:00 ~ 새벽04:00",
    "thumbnail": "https://dkxm8.com/data/file/main/1728182871_b327lrKN_be3823773260b083526b0a52abe2551b05e30578.jpg",
    "area": "대전",
    "region": "대전/충청"
  },
  {
    "title": "[룸/풀사롱] 위스키",
    "url": "https://dkxm8.com/profile_popup.php?idx=1134027&gubun=1",
    "description": "❤️명절 오픈❤️",
    "phone": "010-8112-6073",
    "kakao_id": "",
    "telegram_id": "",
    "hours": "❤️슬림 와꾸 영계 맛집❤️",
    "thumbnail": "https://dkxm8.com/data/file/main/1728182871_5d7Tk0WG_01f416c716598d79db437a8339570ff7c84f00de.jpg",
    "area": "대전",
    "region": "대전/충청"
  },
  {
    "title": "[건마] 내상제로1인샵",
    "url": "https://dkxm8.com/profile_popup.php?idx=&gubun=1",
    "description": "❤️유성 20대하드스웨맛집❤️",
    "phone": "010 - 5168 - 3035",
    "kakao_id": "",
    "telegram_id": "",
    "hours": "♥️목욜 윤아예빈소미민아마음♥️",
    "thumbnail": "https://dkxm8.com/img/temp_thum.jpg",
    "area": "대전",
    "region": "대전/충청"
  },
  {
    "title": "[건마] 신데렐라",
    "url": "https://dkxm8.com/profile_popup.php?idx=83404&gubun=1",
    "description": "궁♥G스웨디시♥올탈하드♥",
    "phone": "❤❤010-2048-8581❤❤",
    "kakao_id": "",
    "telegram_id": "",
    "hours": "❤낮12:00 ~ 새벽04:00❤",
    "thumbnail": "https://dkxm8.com/data/file/main/1728182871_QXblWj1L_d3a78ba4d00a3460c8a82cd9081fdedbcd666ed7.gif",
    "area": "대전",
    "region": "대전/충청"
  },
  {
    "title": "[휴게텔] 온리팬스",
    "url": "https://dkxm8.com/profile_popup.php?idx=1293187&gubun=1",
    "description": "유성❤️연중무휴❤️카드가능",
    "phone": "010-2116-5070",
    "kakao_id": "",
    "telegram_id": "",
    "hours": "☀️전부다 20대 영걸~ ☀️",
    "thumbnail": "https://dkxm8.com/data/file/main/1502831950_QtyFa0Px_b9a6d984f28307e99bae45e7de5a1ca809db1482.jpg",
    "area": "대전",
    "region": "대전/충청"
  },
  {
    "title": "[휴게텔] 다이소",
    "url": "https://dkxm8.com/profile_popup.php?idx=1198786&gubun=1",
    "description": "✡️유성온천✡️카드✡️추석",
    "phone": "010-8021-4407",
    "kakao_id": "",
    "telegram_id": "",
    "hours": "추석 정상 영업",
    "thumbnail": "https://dkxm8.com/data/file/main/1728182447_SzF9HkOP_d16802e244aa5110741c6495a5ff0963b65ba46d.jpg",
    "area": "대전",
    "region": "대전/충청"
  },
  {
    "title": "[오피] 히메",
    "url": "https://dkxm8.com/profile_popup.php?idx=1328689&gubun=1",
    "description": "일본인100%♥ 대전",
    "phone": "01028528244",
    "kakao_id": "",
    "telegram_id": "",
    "hours": "PM 02:00 ~ AM 03:00",
    "thumbnail": "https://dkxm8.com/data/file/main/2699961699_1jeVRfX7_f34cf451f83ca0a395555c63f1d5ebc3eb591786.jpg",
    "area": "대전",
    "region": "대전/충청"
  },
  {
    "title": "[건마] 러시아No.1",
    "url": "https://dkxm8.com/profile_popup.php?idx=648286&gubun=1",
    "description": "✡️롯데✡️러시아&태국❣️",
    "phone": "010-4982-1233✨",
    "kakao_id": "",
    "telegram_id": "",
    "hours": "⏰오후1시~새벽6시⏰",
    "thumbnail": "https://dkxm8.com/data/file/main/2669311878_6XcWkop1_6df98c5fd3235dbd4a755cf25f00f80a8a87bac8.jpg",
    "area": "대전",
    "region": "대전/충청"
  },
  {
    "title": "[휴게텔] S휴게텔",
    "url": "https://dkxm8.com/profile_popup.php?idx=1305149&gubun=1",
    "description": "✳️100%실사 한국 하드✳️",
    "phone": "✳️010-4996-1945✳️",
    "kakao_id": "",
    "telegram_id": "",
    "hours": "10:30예약 ➿S급 관리사➿",
    "thumbnail": "https://dkxm8.com/data/file/main/1332623114_hy8HBe9Y_66f6e276b3b1987e1922d366bba5835f812c8628.jpg",
    "area": "대전",
    "region": "대전/충청"
  },
  {
    "title": "[건마] 짝꿍",
    "url": "https://dkxm8.com/profile_popup.php?idx=648382&gubun=1",
    "description": "갈마♥한국미소♥태.미나.나나",
    "phone": "010-3955-6493",
    "kakao_id": "",
    "telegram_id": "",
    "hours": "낮 01:00 ~ 새벽 05:00",
    "thumbnail": "https://dkxm8.com/data/file/main/1728182871_Xk13f4bm_dbd5a63fdf63b83ee1a2c9726452e0c48c7e60f4.gif",
    "area": "대전",
    "region": "대전/충청"
  },
  {
    "title": "[휴게텔] 수변공원",
    "url": "https://dkxm8.com/profile_popup.php?idx=929330&gubun=1",
    "description": "관평❤️유성❤️세종.송강 단체",
    "phone": "✅010-8020-8870 ✅",
    "kakao_id": "",
    "telegram_id": "",
    "hours": "추석 영업중 전원출근",
    "thumbnail": "https://dkxm8.com/data/file/main/1728182871_QxUKVRp6_1a221d010acf0b7e2a6f6e7bc1b032a84a1bff5b.jpg",
    "area": "대전",
    "region": "대전/충청"
  },
  {
    "title": "[트젠/리얼] 도미노",
    "url": "https://dkxm8.com/profile_popup.php?idx=1340820&gubun=1",
    "description": "대전 서구 용문동",
    "phone": "010-5753-0787",
    "kakao_id": "",
    "telegram_id": "",
    "hours": "PM 12:00 ~ AM 05:00",
    "thumbnail": "https://dkxm8.com/data/file/main/2699961699_WrDR3fth_43035d55761e4efa77209ce3327862fadb9f8f8b.jpg",
    "area": "대전",
    "region": "대전/충청"
  },
  {
    "title": "[오피] 대전키세스",
    "url": "https://dkxm8.com/profile_popup.php?idx=1090629&gubun=1",
    "description": "❤️대전 출장전문 방문가능❤️",
    "phone": "010-8103-7781",
    "kakao_id": "",
    "telegram_id": "",
    "hours": "PM 04:00 ~ AM 06:00",
    "thumbnail": "https://dkxm8.com/data/file/main/1728182871_SRHNDPnX_a40db0d94eb59f577010adacead290d0c5589521.jpg",
    "area": "대전",
    "region": "대전/충청"
  },
  {
    "title": "[건마] 나비야",
    "url": "https://dkxm8.com/profile_popup.php?idx=710071&gubun=1",
    "description": "유성구 봉명동 구암동",
    "phone": "010-7451-6113",
    "kakao_id": "",
    "telegram_id": "",
    "hours": "24시간",
    "thumbnail": "https://dkxm8.com/data/file/main/1728182871_5NoHhst1_48152114a811c771943c1f4a70dd409b80140aa6.jpg",
    "area": "대전",
    "region": "대전/충청"
  },
  {
    "title": "[건마] 스타마사지",
    "url": "https://dkxm8.com/profile_popup.php?idx=1258976&gubun=1",
    "description": "대전광역시 유성구 봉명동",
    "phone": "010-4474-2859",
    "kakao_id": "",
    "telegram_id": "",
    "hours": "24시간",
    "thumbnail": "https://dkxm8.com/data/file/main/1728182447_PnIk3wmR_229d92fdf50fd25f25eb1d6cce36efff8e9e52a0.jpg",
    "area": "대전",
    "region": "대전/충청"
  },
  {
    "title": "[건마] 내사랑",
    "url": "https://dkxm8.com/profile_popup.php?idx=1009151&gubun=1",
    "description": "유성구 관평동(테크노밸리)",
    "phone": "010-8854-2888",
    "kakao_id": "",
    "telegram_id": "",
    "hours": "24시간",
    "thumbnail": "https://dkxm8.com/data/file/main/1332623112_k6n0pEOl_25160950047ab11e56ad324c7e9bc764b319274d.jpg",
    "area": "대전",
    "region": "대전/충청"
  },
  {
    "title": "[건마] 맛다시1인샵",
    "url": "https://dkxm8.com/profile_popup.php?idx=648282&gubun=1",
    "description": "❤️ 뉴페맛집 단체환영 ❤️",
    "phone": "010-8457-2148",
    "kakao_id": "",
    "telegram_id": "",
    "hours": "❤️괴정 용문 롯데 단체환영❤️",
    "thumbnail": "https://dkxm8.com/data/file/main/1728182871_7AZaVB1c_eef7150b8739916aa59a8ee6988247b68c77ce67.gif",
    "area": "대전",
    "region": "대전/충청"
  },
  {
    "title": "[건마] 코코넛스웨텔",
    "url": "https://dkxm8.com/profile_popup.php?idx=&gubun=1",
    "description": "유성온천역인근카드가능",
    "phone": "010- 7618-8996",
    "kakao_id": "",
    "telegram_id": "",
    "hours": "ৡ✿❤️24시간❤️|✿ৡ༻",
    "thumbnail": "https://dkxm8.com/img/temp_thum.jpg",
    "area": "대전",
    "region": "대전/충청"
  },
  {
    "title": "[건마] 내상제로1인샵",
    "url": "https://dkxm8.com/profile_popup.php?idx=&gubun=1",
    "description": "❤️유성 20대하드스웨맛집❤️",
    "phone": "010 - 5168 - 3035",
    "kakao_id": "",
    "telegram_id": "",
    "hours": "❤️목욜 윤아예빈소미민아마음❤️",
    "thumbnail": "https://dkxm8.com/img/temp_thum.jpg",
    "area": "대전",
    "region": "대전/충청"
  },
  {
    "title": "[안마] 스타",
    "url": "https://dkxm8.com/profile_popup.php?idx=349803&gubun=1",
    "description": "❤️NF맛집❤️유성❤️",
    "phone": "010-6587-2756",
    "kakao_id": "",
    "telegram_id": "",
    "hours": "오전10시부터 예약가능",
    "thumbnail": "https://dkxm8.com/data/file/main/1728182871_sqo6wRrn_1aefe59f204634fc25eec28de3b374896a78c76b.jpg",
    "area": "대전",
    "region": "대전/충청"
  },
  {
    "title": "[건마] 퍼플스웨디시",
    "url": "https://dkxm8.com/profile_popup.php?idx=1285190&gubun=1",
    "description": "⭐봉명⭐20대슬림⭐️카드가능",
    "phone": "010-8475-5287",
    "kakao_id": "",
    "telegram_id": "",
    "hours": "점심부터새벽까지고고",
    "thumbnail": "https://dkxm8.com/data/file/main/1502831902_b2phjtNs_cd64d1ca6e96d5dd53688e2fd4e71dea44a5c737.jpg",
    "area": "대전",
    "region": "대전/충청"
  },
  {
    "title": "[건마] 로즈",
    "url": "https://dkxm8.com/profile_popup.php?idx=1114036&gubun=1",
    "description": "✨봉명동 서비스&사이즈 보장✨",
    "phone": "❤️010-9801-4773❤️",
    "kakao_id": "",
    "telegram_id": "",
    "hours": "☀️13:00 ~ 04:00",
    "thumbnail": "https://dkxm8.com/data/file/main/1502831880_9Qc5eS2p_646ba56692d16e114853144f129bbb632e465502.jpg",
    "area": "대전",
    "region": "대전/충청"
  },
  {
    "title": "[건마] 버디스웨디시",
    "url": "https://dkxm8.com/profile_popup.php?idx=1305626&gubun=1",
    "description": "❤️봉명동❤️하드 스웨 1번지",
    "phone": "010 5651 9991",
    "kakao_id": "",
    "telegram_id": "",
    "hours": "PM 12:00 ~ AM 05:00",
    "thumbnail": "https://dkxm8.com/data/file/main/1332623114_Yl72Xa34_d7d59d0f300b449ebb5e7cc7a0949d245d88a8fa.jpg",
    "area": "대전",
    "region": "대전/충청"
  },
  {
    "title": "[휴게텔] 세탁소",
    "url": "https://dkxm8.com/profile_popup.php?idx=648425&gubun=1",
    "description": "✨관저동.가수원동✨NF소라",
    "phone": "010-3440-8920",
    "kakao_id": "",
    "telegram_id": "",
    "hours": "❤️극강하드컨셉❤️프리미엄 휴게텔❤️",
    "thumbnail": "https://dkxm8.com/data/file/main/1502832061_oYINAHru_c6468565ac878cfc4a992da8def91fe86a28a482.jpg",
    "area": "대전",
    "region": "대전/충청"
  },
  {
    "title": "[휴게텔] 루프탑",
    "url": "https://dkxm8.com/profile_popup.php?idx=&gubun=1",
    "description": "NEW❤️오류❤️선화❤️대흥",
    "phone": "010-2847-8920",
    "kakao_id": "",
    "telegram_id": "",
    "hours": "❤️오후1시~새벽 5시❤️",
    "thumbnail": "https://dkxm8.com/img/temp_thum.jpg",
    "area": "대전",
    "region": "대전/충청"
  },
  {
    "title": "[건마] AMZ스웨디시",
    "url": "https://dkxm8.com/profile_popup.php?idx=1062275&gubun=1",
    "description": "✨유성봉명&충남대우산거리✨",
    "phone": "010-4185-3185",
    "kakao_id": "",
    "telegram_id": "",
    "hours": "AM 11:00 ~ AM 05:00",
    "thumbnail": "https://dkxm8.com/data/file/main/2669311878_BjodZs2r_c5e0634f9b07ed463b0b5191c37d8b4cecfc57f5.jpg",
    "area": "대전",
    "region": "대전/충청"
  },
  {
    "title": "[휴게텔] 어썸",
    "url": "https://dkxm8.com/profile_popup.php?idx=1044091&gubun=1",
    "description": "❤️유성❤️오늘도정상영업❤️",
    "phone": "❤️010-2472-2812❤️",
    "kakao_id": "",
    "telegram_id": "",
    "hours": "❤️낮 1시 ~ 새벽 5시❤️",
    "thumbnail": "https://dkxm8.com/data/file/main/1728182871_vg5D9YpM_16d5ee1a3a4c3edc058285e318b252933d1af7b5.jpg",
    "area": "대전",
    "region": "대전/충청"
  },
  {
    "title": "[휴게텔] 헤븐",
    "url": "https://dkxm8.com/profile_popup.php?idx=1023467&gubun=1",
    "description": "❤️유성❤️연휴정상영업❤️",
    "phone": "❤️010-8294-2219❤️",
    "kakao_id": "",
    "telegram_id": "",
    "hours": "❤️오후1시 ~ 오전5시❤️",
    "thumbnail": "https://dkxm8.com/data/file/main/1728182447_syaUoKCx_9d4a93c649dc9dc78ee4b551c1b03d190eb085ff.jpg",
    "area": "대전",
    "region": "대전/충청"
  },
  {
    "title": "[휴게텔] 미스틱",
    "url": "https://dkxm8.com/profile_popup.php?idx=1140332&gubun=1",
    "description": "✡️유성✡️단체 환영❤️",
    "phone": "✡️010-9766-5811✡️",
    "kakao_id": "",
    "telegram_id": "",
    "hours": "✡️오후1:00 ~ 오전5:00✡️",
    "thumbnail": "https://dkxm8.com/data/file/main/1728182447_ad7Smlyt_b4a55fd9019173fd13bd65d2a444751e98b6080f.jpg",
    "area": "대전",
    "region": "대전/충청"
  },
  {
    "title": "[오피] 디올출장",
    "url": "https://dkxm8.com/profile_popup.php?idx=1253693&gubun=1",
    "description": "✅대전 청주 프리미엄출장✅",
    "phone": "010-2195-6664",
    "kakao_id": "",
    "telegram_id": "",
    "hours": "pm 03:00 - am06:00",
    "thumbnail": "https://dkxm8.com/data/file/main/1332623111_XGlhxYuW_9639f0f6f3b8de5e40f59e1ef878460b314ec89a.jpg",
    "area": "대전",
    "region": "대전/충청"
  },
  {
    "title": "[휴게텔] 망고",
    "url": "https://dkxm8.com/profile_popup.php?idx=1105229&gubun=1",
    "description": "☀️유성☀️명정도 영업중❣️",
    "phone": "☀️010-7539-8647☀️",
    "kakao_id": "",
    "telegram_id": "",
    "hours": "☀️오후01:00~오전05:00☀️",
    "thumbnail": "https://dkxm8.com/data/file/main/1728182447_JOrgGcUv_f489fa2a8da5ec0976a8aec5c9e8a7b7b1727605.jpg",
    "area": "대전",
    "region": "대전/충청"
  },
  {
    "title": "[휴게텔] S스웨텔",
    "url": "https://dkxm8.com/profile_popup.php?idx=648579&gubun=1",
    "description": "❤️타업비교불가❤️100%실사",
    "phone": "010-4996-1945",
    "kakao_id": "",
    "telegram_id": "",
    "hours": "오전10:30 예약가능",
    "thumbnail": "https://dkxm8.com/data/file/main/1728182871_htkVvDKz_6e71ea1b0f8f4d97c647c165d4c53aa1b5d410e4.gif",
    "area": "대전",
    "region": "대전/충청"
  },
  {
    "title": "[휴게텔] 콜라",
    "url": "https://dkxm8.com/profile_popup.php?idx=1357872&gubun=1",
    "description": "⭐유성구⭐NEW OPEN⭐",
    "phone": "010-5926-3587",
    "kakao_id": "",
    "telegram_id": "",
    "hours": "⭐1:00PM~5:00AM⭐",
    "thumbnail": "https://dkxm8.com/data/file/main/2669311878_yzoj1rFg_3ca5d6942dc9af18a9ebdf20a9c3cebdc25ce17d.jpg",
    "area": "대전",
    "region": "대전/충청"
  },
  {
    "title": "[휴게텔] 우영미",
    "url": "https://dkxm8.com/profile_popup.php?idx=1322808&gubun=1",
    "description": "❤️봉명동❤️우수업소❤️",
    "phone": "❤️010-7541-8368❤️",
    "kakao_id": "",
    "telegram_id": "",
    "hours": "❤️오후1시~새벽5시❤️",
    "thumbnail": "https://dkxm8.com/data/file/main/1502832065_k8E9a6Qe_01284dfa7b7cfc31fbcd8317bae7b11f4608cca1.jpg",
    "area": "대전",
    "region": "대전/충청"
  },
  {
    "title": "[건마] 샤인스웨디시",
    "url": "https://dkxm8.com/profile_popup.php?idx=1107872&gubun=1",
    "description": "유성❤️노은 지족 반석",
    "phone": "010-2317-5769",
    "kakao_id": "",
    "telegram_id": "",
    "hours": "SM / 70분투샷 / VIP코스",
    "thumbnail": "https://dkxm8.com/data/file/main/1502831921_YK1rWuBP_82278072733c22c4367bc9679c5cbd35649d6f12.jpg",
    "area": "대전",
    "region": "대전/충청"
  },
  {
    "title": "[휴게텔] x녀의스웨텔",
    "url": "https://dkxm8.com/profile_popup.php?idx=1149613&gubun=1",
    "description": "☀️S녀M남☀️한국여대생☀️",
    "phone": "✅010-7402-6898✅",
    "kakao_id": "",
    "telegram_id": "",
    "hours": "✈️20살NF전원한국✈️",
    "thumbnail": "https://dkxm8.com/data/file/main/1728182871_0qXVje7w_cd2a55c2b4accaa039864b392bb5f8ecded45da4.jpg",
    "area": "대전",
    "region": "대전/충청"
  },
  {
    "title": "[건마] 스물세살x녀",
    "url": "https://dkxm8.com/profile_popup.php?idx=1157959&gubun=1",
    "description": "어린애들☀️NF추가☀️유성온천",
    "phone": "⛳010-7402-6898⛳",
    "kakao_id": "",
    "telegram_id": "",
    "hours": "와꾸⭕초하드⭕무엇이든⭕",
    "thumbnail": "https://dkxm8.com/data/file/main/1728182447_YCM4Bfqr_0eb98b80d48eaae886e926fe9bcacee7014e1c7a.jpg",
    "area": "대전",
    "region": "대전/충청"
  },
  {
    "title": "[휴게텔] 퐁당",
    "url": "https://dkxm8.com/profile_popup.php?idx=648431&gubun=1",
    "description": "NF한별❤️둔산동&한국❤️",
    "phone": "010-5931-7273",
    "kakao_id": "",
    "telegram_id": "",
    "hours": "☑️[10/9 목] 6시~새벽7시",
    "thumbnail": "https://dkxm8.com/data/file/main/1728182871_69xKd7j5_03eeb24065abb429dd0e796d0c3d226899356e6c.gif",
    "area": "대전",
    "region": "대전/충청"
  },
  {
    "title": "[건마] 블랙핑크",
    "url": "https://dkxm8.com/profile_popup.php?idx=648530&gubun=1",
    "description": "❤️대전❤️유성봉명동❤️",
    "phone": "010-5820-8714",
    "kakao_id": "",
    "telegram_id": "",
    "hours": "오전10시~새벽4시",
    "thumbnail": "https://dkxm8.com/data/file/main/1728182871_4QdwugAh_5e7f19f7298b9a3c42def566f52cc9b050dbec40.gif",
    "area": "대전",
    "region": "대전/충청"
  },
  {
    "title": "[건마] 우유범벅",
    "url": "https://dkxm8.com/profile_popup.php?idx=1288198&gubun=1",
    "description": "대전 유성구 봉명동",
    "phone": "010-7217-8605",
    "kakao_id": "",
    "telegram_id": "",
    "hours": "AM 06:00 ~ AM 06:00",
    "thumbnail": "https://dkxm8.com/data/file/main/1502831950_AkQVOIcl_b00aaf12da4ed0d15d067c511dbcfca3c1c705de.jpg",
    "area": "대전",
    "region": "대전/충청"
  },
  {
    "title": "[건마] 헤이1인샵",
    "url": "https://dkxm8.com/profile_popup.php?idx=1106400&gubun=1",
    "description": "❤️관평동신탄진세종유성❤️",
    "phone": "✨010-2391-2536✨",
    "kakao_id": "",
    "telegram_id": "",
    "hours": "❤️NF지아.유미.주은❤️",
    "thumbnail": "https://dkxm8.com/data/file/main/1728182447_jL8xAX2D_fadea54f0462e2114c9a35ce4b0f25333370f46e.jpg",
    "area": "대전",
    "region": "대전/충청"
  },
  {
    "title": "[건마] 버블스웨디시",
    "url": "https://dkxm8.com/profile_popup.php?idx=649342&gubun=1",
    "description": "금요일❤️단비복귀❤️샛별주간",
    "phone": "⚡010-2743-3329⚡",
    "kakao_id": "",
    "telegram_id": "",
    "hours": "✅AM11:00 ~AM 05:00✅",
    "thumbnail": "https://dkxm8.com/data/file/main/2669311878_LGeqEUVb_13b8c06541c77e1c9ed7ea5e9bd93f2410027539.jpg",
    "area": "대전",
    "region": "대전/충청"
  },
  {
    "title": "[건마] 레전드스웨디시",
    "url": "https://dkxm8.com/profile_popup.php?idx=648796&gubun=1",
    "description": "동구♡100%실사!20대한국인",
    "phone": "01083528195",
    "kakao_id": "",
    "telegram_id": "",
    "hours": "AM 10:00 ~ AM 05:00",
    "thumbnail": "https://dkxm8.com/data/file/main/1728182871_MG1tkQLx_4f0a11de2dc301fccd64360b879d74a0d804d9a2.gif",
    "area": "대전",
    "region": "대전/충청"
  },
  {
    "title": "[룸/풀사롱] 대전랭킹1위",
    "url": "https://dkxm8.com/profile_popup.php?idx=835613&gubun=1",
    "description": "⎝⎛대전룸싸롱✴️사이즈①등⎞⎠",
    "phone": "010-7901-2569",
    "kakao_id": "",
    "telegram_id": "",
    "hours": "▂▅365일24시⭐▅▂❤️",
    "thumbnail": "https://dkxm8.com/data/file/main/1502831880_matRq9kn_f523ef2d0ddd206dace8d570257948218261897e.jpg",
    "area": "대전",
    "region": "대전/충청"
  },
  {
    "title": "[건마] 포유1인샵",
    "url": "https://dkxm8.com/profile_popup.php?idx=1340215&gubun=1",
    "description": "오류 용문 대흥 SM,투샷",
    "phone": "010 8242 8555",
    "kakao_id": "",
    "telegram_id": "",
    "hours": "SM.시크릿.투샷",
    "thumbnail": "https://dkxm8.com/data/file/main/2699961699_rF4xwQIE_feff60a532d689ecb470315712148c40020942ac.jpg",
    "area": "대전",
    "region": "대전/충청"
  },
  {
    "title": "[건마] 대전 별1인샵",
    "url": "https://dkxm8.com/profile_popup.php?idx=1276297&gubun=1",
    "description": "⭐선화.대흥.용문.괴정⭐",
    "phone": "⭐010-5932-3755⭐",
    "kakao_id": "",
    "telegram_id": "",
    "hours": "와꾸파 . 서비스파 . 주간할인",
    "thumbnail": "https://dkxm8.com/data/file/main/1332623114_utlFyMBY_abf6964f2d0d5aa86bbc62ccc0fa247376daf7ce.jpg",
    "area": "대전",
    "region": "대전/충청"
  },
  {
    "title": "[오피] 초콜렛",
    "url": "https://dkxm8.com/profile_popup.php?idx=648690&gubun=1",
    "description": "❤️성심당보다 맛있어~!!❤️",
    "phone": "010-8209-1852",
    "kakao_id": "",
    "telegram_id": "",
    "hours": "AM10:30~가성비TOP!!",
    "thumbnail": "https://dkxm8.com/data/file/main/1728182871_TDYepOmZ_939bf9d903c206c84b1b9913092e42745000277a.jpg",
    "area": "대전",
    "region": "대전/충청"
  },
  {
    "title": "[휴게텔] 라이프",
    "url": "https://dkxm8.com/profile_popup.php?idx=648459&gubun=1",
    "description": "❤️애널가능❤️NO1수아 비비",
    "phone": "❤️❤️010-3025-7913❤️",
    "kakao_id": "",
    "telegram_id": "",
    "hours": "☀️Pm 2시 ~ Am 4시30☀️",
    "thumbnail": "https://dkxm8.com/data/file/main/2669311878_wpGl4gQt_04aa2671efced257e827d067e5961ed3fd2800e9.jpg",
    "area": "대전",
    "region": "대전/충청"
  },
  {
    "title": "[오피] 유앤미",
    "url": "https://dkxm8.com/profile_popup.php?idx=648446&gubun=1",
    "description": "♻️♻️유성구 봉명동♻️♻️",
    "phone": "⭐⭐010-8296-4961⭐⭐",
    "kakao_id": "",
    "telegram_id": "",
    "hours": "⤴️⤴️12:00~04:00⤴️⤴️",
    "thumbnail": "https://dkxm8.com/data/file/main/1728182447_yzS4TG90_0619b3361ae6c36f56862854abb8ea5e4499c4be.jpg",
    "area": "대전",
    "region": "대전/충청"
  },
  {
    "title": "[건마] 바디딸딸이",
    "url": "https://dkxm8.com/profile_popup.php?idx=648869&gubun=1",
    "description": "용문동탄방동NF러샤태국NF미양",
    "phone": "010-2187-8473",
    "kakao_id": "",
    "telegram_id": "",
    "hours": "AM 11:00 ~ AM 07:00",
    "thumbnail": "https://dkxm8.com/data/file/main/1728182871_JyXjax1U_5dcfc1e63abf9b3046e5a51ae82e1d5589afb36d.gif",
    "area": "대전",
    "region": "대전/충청"
  },
  {
    "title": "[건마] 바디슬라이딩",
    "url": "https://dkxm8.com/profile_popup.php?idx=918785&gubun=1",
    "description": "✨둔산동풀하드VIP✨전원20대",
    "phone": "010-2143-1766",
    "kakao_id": "",
    "telegram_id": "",
    "hours": "24시간 365일",
    "thumbnail": "https://dkxm8.com/data/file/main/1332623114_wGuxVACX_fa27ff2350d99789d7f11785211f4f115a31cf06.jpg",
    "area": "대전",
    "region": "대전/충청"
  },
  {
    "title": "[건마] 꿈하루",
    "url": "https://dkxm8.com/profile_popup.php?idx=&gubun=1",
    "description": "유성온천. 신규1인샵 ☀️⋰⋰",
    "phone": "£ 010-9853-6676 ∙ ⊹",
    "kakao_id": "",
    "telegram_id": "",
    "hours": "12:00 4:00 (ˉ▽￣～)/*",
    "thumbnail": "https://dkxm8.com/img/temp_thum.jpg",
    "area": "대전",
    "region": "대전/충청"
  },
  {
    "title": "[건마] 스타킹",
    "url": "https://dkxm8.com/profile_popup.php?idx=1297672&gubun=1",
    "description": "대전시 둔산동 시청역 부근",
    "phone": "010-3982-9150",
    "kakao_id": "",
    "telegram_id": "",
    "hours": "AM 12:00 ~ AM 04:00",
    "thumbnail": "https://dkxm8.com/data/file/main/1502831880_eY50EsGC_78b8b1d4d48b3c809948ec121b14131ea3604b47.jpg",
    "area": "대전",
    "region": "대전/충청"
  },
  {
    "title": "[건마] 큐브스웨디시",
    "url": "https://dkxm8.com/profile_popup.php?idx=1327026&gubun=1",
    "description": "⭐둔산탄방갈마⭐️20대한국⭐",
    "phone": "010-2193-8043",
    "kakao_id": "",
    "telegram_id": "",
    "hours": "PM 01:00 ~ AM 02:00",
    "thumbnail": "https://dkxm8.com/data/file/main/2699961699_p0UzlbRT_d7af9bb1093ab38418e7bcdad46423a196f0e65c.jpg",
    "area": "대전",
    "region": "대전/충청"
  },
  {
    "title": "[건마] 큐브1인샵",
    "url": "https://dkxm8.com/profile_popup.php?idx=1261146&gubun=1",
    "description": "❣️둔산 탄방❣️번호변경",
    "phone": "010-2193-8043",
    "kakao_id": "",
    "telegram_id": "",
    "hours": "PM 12:00 ~ AM 05:00",
    "thumbnail": "https://dkxm8.com/data/file/main/1332623111_gZ6dticQ_f9a7cd3443c7513732e183d3f7da7de2b4a8ac94.jpg",
    "area": "대전",
    "region": "대전/충청"
  },
  {
    "title": "[건마] 스타중국마사지",
    "url": "https://dkxm8.com/profile_popup.php?idx=&gubun=1",
    "description": "대전 중구",
    "phone": "010-5927-8105",
    "kakao_id": "",
    "telegram_id": "",
    "hours": "24시간",
    "thumbnail": "https://dkxm8.com/img/temp_thum.jpg",
    "area": "대전",
    "region": "대전/충청"
  },
  {
    "title": "[건마] 풍류스파",
    "url": "https://dkxm8.com/profile_popup.php?idx=649433&gubun=1",
    "description": "❤️갓성비❤️10시부터예약가능",
    "phone": "042-484-8303",
    "kakao_id": "",
    "telegram_id": "",
    "hours": "❤️24시오줌지리는퍼포먼스❤️",
    "thumbnail": "https://dkxm8.com/data/file/main/1728182871_KUka8tAR_07bfa630f72436accdd9fe825e73ae204047b62e.gif",
    "area": "대전",
    "region": "대전/충청"
  },
  {
    "title": "[건마] 미스홍당무",
    "url": "https://dkxm8.com/profile_popup.php?idx=&gubun=1",
    "description": "대전 서구 탄방동",
    "phone": "010-2115-8865",
    "kakao_id": "",
    "telegram_id": "",
    "hours": "24시간 연중무휴",
    "thumbnail": "https://dkxm8.com/img/temp_thum.jpg",
    "area": "대전",
    "region": "대전/충청"
  },
  {
    "title": "[건마] 이브",
    "url": "https://dkxm8.com/profile_popup.php?idx=783951&gubun=1",
    "description": "❣️유성봉명❣️태국 한국러시아",
    "phone": "010-6856-9969",
    "kakao_id": "",
    "telegram_id": "",
    "hours": "PM 12:00 ~ 새벽 6:00",
    "thumbnail": "https://dkxm8.com/data/file/main/1728182871_cmuAxDE6_3de2fe6a141c78a295cc0e901fa04614016dea59.jpg",
    "area": "대전",
    "region": "대전/충청"
  },
  {
    "title": "[휴게텔] W",
    "url": "https://dkxm8.com/profile_popup.php?idx=648461&gubun=1",
    "description": "번호변경❤유성 관평❤",
    "phone": "010-2695-8043",
    "kakao_id": "",
    "telegram_id": "",
    "hours": "PM 13:00 ~ AM 04:00",
    "thumbnail": "https://dkxm8.com/data/file/main/1728182871_ZRcfjCl4_a4f311304333d7dbd04858749eeeb589fc5d16dd.gif",
    "area": "대전",
    "region": "대전/충청"
  },
  {
    "title": "[건마] 크림파이",
    "url": "https://dkxm8.com/profile_popup.php?idx=862774&gubun=1",
    "description": "♥봉명동 시크릿 와꾸1번지 ♥",
    "phone": "010-7678-4246",
    "kakao_id": "",
    "telegram_id": "",
    "hours": "╋━❥ 재방문율200프로.❤️ ❥━╋",
    "thumbnail": "https://dkxm8.com/data/file/main/1502832061_z47mBcuG_78bbeeac843c21ca928a7ab55661f4a51e3592e6.jpg",
    "area": "대전",
    "region": "대전/충청"
  },
  {
    "title": "[립카페] 설레임1인샵",
    "url": "https://dkxm8.com/profile_popup.php?idx=1235993&gubun=1",
    "description": "✅둔산✅ 거짓없는이쁜이❤",
    "phone": "010-7421-4936",
    "kakao_id": "",
    "telegram_id": "",
    "hours": "효정/세희",
    "thumbnail": "https://dkxm8.com/data/file/main/1502831950_7vJE2LVR_ee0af76534632b5780077abaed1b693fd6eb8395.jpg",
    "area": "대전",
    "region": "대전/충청"
  },
  {
    "title": "[건마] IVE1인샵",
    "url": "https://dkxm8.com/profile_popup.php?idx=1234537&gubun=1",
    "description": "✅아이브✅ 탱글탱글 이쁜이❤",
    "phone": "010-9829-5276",
    "kakao_id": "",
    "telegram_id": "",
    "hours": "효정/세희",
    "thumbnail": "https://dkxm8.com/data/file/main/1502831950_qQ2R9sB1_ff1760f5e4f2734f1a23869d3c5430a78325efed.jpg",
    "area": "대전",
    "region": "대전/충청"
  },
  {
    "title": "[건마] 현이1인샵",
    "url": "https://dkxm8.com/profile_popup.php?idx=1287433&gubun=1",
    "description": "❣️탄방동 예쁜 몸매 미침❣️",
    "phone": "❤️010-5857-6319❤️",
    "kakao_id": "",
    "telegram_id": "",
    "hours": "❣️❣️오후1시~오전12시❣️❣️",
    "thumbnail": "https://dkxm8.com/data/file/main/1502831950_qzADyBX1_85a6982b98fa8c06d5e66178cf8cf0986f22d062.jpg",
    "area": "대전",
    "region": "대전/충청"
  },
  {
    "title": "[건마] 구미호",
    "url": "https://dkxm8.com/profile_popup.php?idx=648679&gubun=1",
    "description": "중리 하드끝판왕 NF등장❤️",
    "phone": "010-4099-3660",
    "kakao_id": "",
    "telegram_id": "",
    "hours": "PM 12:00 ~ AM 06:00",
    "thumbnail": "https://dkxm8.com/data/file/main/1728182447_eS8w3L0K_37f58bf8050174002040dc1eb52ed74ac78c0b73.gif",
    "area": "대전",
    "region": "대전/충청"
  },
  {
    "title": "[건마] 사이즈1인샵",
    "url": "https://dkxm8.com/profile_popup.php?idx=1242430&gubun=1",
    "description": "❤️유성 봉명동 핵심 스팟❤️",
    "phone": "❤️010-4347-8706❤️",
    "kakao_id": "",
    "telegram_id": "",
    "hours": "♥️리얼20대여신들 화끈하게♥️",
    "thumbnail": "https://dkxm8.com/data/file/main/1332623118_J1gTadiI_394590282ee17cc21b9fbf6243389b10704aa55b.jpg",
    "area": "대전",
    "region": "대전/충청"
  },
  {
    "title": "[건마] 다낭스웨디시",
    "url": "https://dkxm8.com/profile_popup.php?idx=1240938&gubun=1",
    "description": "탄방동 괴정동 베트남스웨디시",
    "phone": "010-8048-5175",
    "kakao_id": "",
    "telegram_id": "",
    "hours": "PM1:00~AM5:00",
    "thumbnail": "https://dkxm8.com/data/file/main/1332623114_u84pzcvF_edf6ad6da5782a92c550924fcf012bcf11ea7bc7.jpg",
    "area": "대전",
    "region": "대전/충청"
  },
  {
    "title": "[휴게텔] 올누드",
    "url": "https://dkxm8.com/profile_popup.php?idx=1104605&gubun=1",
    "description": "❤️유성 프라이빗 왁싱샵❤️",
    "phone": "❤️010-3471-4798❤️",
    "kakao_id": "",
    "telegram_id": "",
    "hours": "⏰PM 12:00~AM 1:00⏰",
    "thumbnail": "https://dkxm8.com/data/file/main/1332623111_MetAa658_fed661049573ae5b21737d86a5aa1bd4d78395ac.jpg",
    "area": "대전",
    "region": "대전/충청"
  },
  {
    "title": "[립카페] 짜빠구리",
    "url": "https://dkxm8.com/profile_popup.php?idx=1299882&gubun=1",
    "description": "탄방용문괴정",
    "phone": "010 7250 4674",
    "kakao_id": "",
    "telegram_id": "",
    "hours": "11am ~ 06am",
    "thumbnail": "https://dkxm8.com/data/file/main/1502831880_ZMFOuSyI_be4e18fd87d94ddd80cc562541ae4fe43c05125c.jpg",
    "area": "대전",
    "region": "대전/충청"
  },
  {
    "title": "[립카페] 힐링캠핑",
    "url": "https://dkxm8.com/profile_popup.php?idx=649046&gubun=1",
    "description": "오류동/이벤트.릴10만/ 한국",
    "phone": "042-535-4333",
    "kakao_id": "",
    "telegram_id": "",
    "hours": "10월 13일",
    "thumbnail": "https://dkxm8.com/data/file/main/1728182871_F8SN04h1_1bbf7c5de9120df38c1ccbaba56c54195c72cc7b.gif",
    "area": "대전",
    "region": "대전/충청"
  },
  {
    "title": "[건마] 올드미시출장",
    "url": "https://dkxm8.com/profile_popup.php?idx=966230&gubun=1",
    "description": "대전★짱아복귀★모텔★자택★출장",
    "phone": "010-9562-6608",
    "kakao_id": "",
    "telegram_id": "",
    "hours": "AM 10:00 ~ AM 02:00",
    "thumbnail": "https://dkxm8.com/data/file/main/1728182871_A0lFLtyM_50a925af7def5de9fc7212d03a04101805739282.gif",
    "area": "대전",
    "region": "대전/충청"
  },
  {
    "title": "[건마] 요정의방1인샵",
    "url": "https://dkxm8.com/profile_popup.php?idx=1018780&gubun=1",
    "description": "목)오늘도 신비랑 야하게~~~",
    "phone": "☎️010-2302-6074☎️",
    "kakao_id": "",
    "telegram_id": "",
    "hours": "❤️뭐든가능❤️코스프레❤️",
    "thumbnail": "https://dkxm8.com/data/file/main/1728182871_Cf5vIFzu_20fc2c5023dfb7697487fa1de2f586592d73adf4.jpg",
    "area": "대전",
    "region": "대전/충청"
  },
  {
    "title": "[건마] 체리스웨디시",
    "url": "https://dkxm8.com/profile_popup.php?idx=1137774&gubun=1",
    "description": "❤️좁보,굿떡감,애인모드❤️",
    "phone": "010-8025-7005",
    "kakao_id": "",
    "telegram_id": "",
    "hours": "오후3:00~새벽4:00",
    "thumbnail": "https://dkxm8.com/data/file/main/1502831950_6WdcGZpx_877b2efbb195d017b0cdde5ff44c67fea86e63ae.jpg",
    "area": "대전",
    "region": "대전/충청"
  },
  {
    "title": "[휴게텔] 오뚜기",
    "url": "https://dkxm8.com/profile_popup.php?idx=1337322&gubun=1",
    "description": "✨서구✨탄방동❤️둔산동❤️",
    "phone": "010-8038-5331",
    "kakao_id": "",
    "telegram_id": "",
    "hours": "2pm~5am",
    "thumbnail": "https://dkxm8.com/data/file/main/2699961699_YxBfwOpb_1236f1b27cf750dabf742bc1a375af315a8e62db.jpg",
    "area": "대전",
    "region": "대전/충청"
  },
  {
    "title": "[휴게텔] 홈서비스출장",
    "url": "https://dkxm8.com/profile_popup.php?idx=1085768&gubun=1",
    "description": "대전 및 충청도 전지역 가능!",
    "phone": "010-8282-1764",
    "kakao_id": "",
    "telegram_id": "",
    "hours": "PM 02:00 ~ AM 05:00",
    "thumbnail": "https://dkxm8.com/data/file/main/1728182447_LpyX5BWQ_299cae237b14a1beb24f48e3a8f692e4abe33f0d.jpg",
    "area": "대전",
    "region": "대전/충청"
  },
  {
    "title": "[건마] 핸드크림",
    "url": "https://dkxm8.com/profile_popup.php?idx=648340&gubun=1",
    "description": "NF❤️유성❤️봉명동❤️6만원",
    "phone": "010-6661-9512",
    "kakao_id": "",
    "telegram_id": "",
    "hours": "PM 13:00 ~ AM 05:00",
    "thumbnail": "https://dkxm8.com/data/file/main/1728182447_YxcMrquh_06221916dbed896a3821d79fd92c9fda43d7b1d1.gif",
    "area": "대전",
    "region": "대전/충청"
  },
  {
    "title": "[건마] 핑크",
    "url": "https://dkxm8.com/profile_popup.php?idx=1321929&gubun=1",
    "description": "대전 유성구",
    "phone": "010-8263-3583",
    "kakao_id": "",
    "telegram_id": "",
    "hours": "24시간",
    "thumbnail": "https://dkxm8.com/data/file/main/1502832065_JvXbq1U0_64358d00c1a61e247282e0391422aa7a753d432d.jpg",
    "area": "대전",
    "region": "대전/충청"
  },
  {
    "title": "[오피] 메이저",
    "url": "https://dkxm8.com/profile_popup.php?idx=648704&gubun=1",
    "description": "즐달 캐릭터 발굴 천재 회사!",
    "phone": "010-8412-8475",
    "kakao_id": "",
    "telegram_id": "",
    "hours": "오전 11시 ~ 새벽 5시",
    "thumbnail": "https://dkxm8.com/data/file/main/1728182871_nfCJ9Gsc_5c754c7a7222915c86b7cb12abc014d49fafd04b.jpg",
    "area": "대전",
    "region": "대전/충청"
  },
  {
    "title": "[립카페] 츄파춥스1인샵",
    "url": "https://dkxm8.com/profile_popup.php?idx=1006258&gubun=1",
    "description": "❤️롯백뒤❤️ ⭐️괴정용문⭐️",
    "phone": "❣️010-5835-6034❣️",
    "kakao_id": "",
    "telegram_id": "",
    "hours": "10월09일초희,윤서",
    "thumbnail": "https://dkxm8.com/data/file/main/1728182871_8GDnFc2K_e80fd9faad91bf9978d8970b7bdae1eab7a94ae6.jpg",
    "area": "대전",
    "region": "대전/충청"
  },
  {
    "title": "[건마] 까꿍1인샵",
    "url": "https://dkxm8.com/profile_popup.php?idx=1303510&gubun=1",
    "description": "❤️롯백,괴정20대와꾸1번❤️",
    "phone": "010-5835-6034",
    "kakao_id": "",
    "telegram_id": "",
    "hours": "❤️초희.윤서❤️",
    "thumbnail": "https://dkxm8.com/data/file/main/1332623114_c0ImwViA_730eae3322c6d066db38d7e9e89c4b8967769a8b.jpg",
    "area": "대전",
    "region": "대전/충청"
  },
  {
    "title": "[건마] 젤리크림",
    "url": "https://dkxm8.com/profile_popup.php?idx=1354749&gubun=1",
    "description": "계룡시",
    "phone": "010-8112-8682",
    "kakao_id": "",
    "telegram_id": "",
    "hours": "24시간",
    "thumbnail": "https://dkxm8.com/data/file/main/1332623112_qRylV5KN_f2a52e2aa6fc150a840c10d3f0efcd33fc75378e.jpg",
    "area": "대전",
    "region": "대전/충청"
  },
  {
    "title": "[오피] 도파민",
    "url": "https://dkxm8.com/profile_popup.php?idx=1353945&gubun=1",
    "description": "♥대전전지역♥백마1번업소♥",
    "phone": "01077518095",
    "kakao_id": "",
    "telegram_id": "",
    "hours": "♥오후3시~오전6시♥",
    "thumbnail": "https://dkxm8.com/data/file/main/1332623112_B02wKOHI_a89840ae0c20a3d215b97444220d3531931a9a9e.jpg",
    "area": "대전",
    "region": "대전/충청"
  },
  {
    "title": "[오피] 이벤트",
    "url": "https://dkxm8.com/profile_popup.php?idx=648320&gubun=1",
    "description": "✨✨매니저 맛보로 오세요✨✨",
    "phone": "010-5802-9366",
    "kakao_id": "",
    "telegram_id": "",
    "hours": "PM12:00 ~ AM 04:00",
    "thumbnail": "https://dkxm8.com/data/file/main/1332623111_56WP7ryt_5ba20e65d5c1a156403747f16f6eaf6302b806d5.jpg",
    "area": "대전",
    "region": "대전/충청"
  },
  {
    "title": "[휴게텔] 블랑",
    "url": "https://dkxm8.com/profile_popup.php?idx=1365854&gubun=1",
    "description": "NEW SEASON 유성봉명동",
    "phone": "010-6717-1620",
    "kakao_id": "",
    "telegram_id": "",
    "hours": "pm01:00~am05:00",
    "thumbnail": "https://dkxm8.com/data/file/main/2669311878_rR1e3qYd_d927ea70cc7de53a767cc7ad3d5c30fa1eaa90ca.jpg",
    "area": "대전",
    "region": "대전/충청"
  },
  {
    "title": "[오피] 럭셔리백마",
    "url": "https://dkxm8.com/profile_popup.php?idx=648566&gubun=1",
    "description": "슬림금발 다냐 천연글래머 마리",
    "phone": "010-3974-5099",
    "kakao_id": "",
    "telegram_id": "",
    "hours": "PM 12:00 ~ AM 04:00",
    "thumbnail": "https://dkxm8.com/data/file/main/1728182447_TgkrNVOM_447ed9556690aac6a3e39746b44d1609b3ae1dea.gif",
    "area": "대전",
    "region": "대전/충청"
  },
  {
    "title": "[건마] 둔산밤꽃타이",
    "url": "https://dkxm8.com/profile_popup.php?idx=&gubun=1",
    "description": "대전 서구 둔산동 오피형 건마",
    "phone": "010-4648-6942",
    "kakao_id": "",
    "telegram_id": "",
    "hours": "13:00~04:00",
    "thumbnail": "https://dkxm8.com/img/temp_thum.jpg",
    "area": "대전",
    "region": "대전/충청"
  },
  {
    "title": "[건마] 고추터미널",
    "url": "https://dkxm8.com/profile_popup.php?idx=1282825&gubun=1",
    "description": "대전 유성구 관평동",
    "phone": "010-2115-8865",
    "kakao_id": "",
    "telegram_id": "",
    "hours": "24시간",
    "thumbnail": "https://dkxm8.com/data/file/main/1332623112_0VTFYIZE_fca310e1f7322b1153d324f968ac7e31259c9bc9.jpg",
    "area": "대전",
    "region": "대전/충청"
  },
  {
    "title": "[건마] 빵야빵야",
    "url": "https://dkxm8.com/profile_popup.php?idx=88960&gubun=1",
    "description": "태국,러시아,한국",
    "phone": "01075537797",
    "kakao_id": "",
    "telegram_id": "",
    "hours": "AM12:00~ AM6:00",
    "thumbnail": "https://dkxm8.com/data/file/main/1728182447_A0MugsNi_fffafcc2d558e4e83cb828c87236aaee63749a1c.jpg",
    "area": "대전",
    "region": "대전/충청"
  },
  {
    "title": "[오피] 청담",
    "url": "https://dkxm8.com/profile_popup.php?idx=1274286&gubun=1",
    "description": "예쁜 일반인 캐스팅 다수 영입",
    "phone": "010 7785 2106",
    "kakao_id": "",
    "telegram_id": "",
    "hours": "am11:00 ~ am02:00",
    "thumbnail": "https://dkxm8.com/data/file/main/1332623117_OrdkWY6p_ce6230b8b60ad2c0e3728bea5de2e16ec59b9797.jpg",
    "area": "대전",
    "region": "대전/충청"
  },
  {
    "title": "[건마] 혀웨디시1인샵",
    "url": "https://dkxm8.com/profile_popup.php?idx=1305209&gubun=1",
    "description": "대전 쌩NF 진또배기 1인샾",
    "phone": "010 7402 6514",
    "kakao_id": "",
    "telegram_id": "",
    "hours": "AM11:00 ~ AM03:00",
    "thumbnail": "https://dkxm8.com/data/file/main/1332623114_B4Ypzw2j_e2a7b84f1b7c9a1ac5cc5ad8ad33da64af0e8580.jpg",
    "area": "대전",
    "region": "대전/충청"
  },
  {
    "title": "[안마] 더블유",
    "url": "https://dkxm8.com/profile_popup.php?idx=663903&gubun=1",
    "description": "❤️최상급라인업❤️대전1위❤️",
    "phone": "❤️010-5865-8461❤️",
    "kakao_id": "",
    "telegram_id": "",
    "hours": "✅고객만족 1위✅24시✅",
    "thumbnail": "https://dkxm8.com/data/file/main/1728182871_1S6vKqM7_4a105bcc5e16889372bd771e3e7940a25c7e4a58.jpg",
    "area": "대전",
    "region": "대전/충청"
  },
  {
    "title": "[휴게텔] 직진",
    "url": "https://dkxm8.com/profile_popup.php?idx=648444&gubun=1",
    "description": "❤괴정,탄방,사랑합니다❤",
    "phone": "❤010-2542-2734❤",
    "kakao_id": "",
    "telegram_id": "",
    "hours": "PM01:00~AM04:00",
    "thumbnail": "https://dkxm8.com/data/file/main/1728182871_lDyWCKTX_5570023d14c4d9c33c6e23230a5fd2a97cb25d0b.gif",
    "area": "대전",
    "region": "대전/충청"
  },
  {
    "title": "[오피] 판타지",
    "url": "https://dkxm8.com/profile_popup.php?idx=648663&gubun=1",
    "description": "❤서구❤와꾸NO.1❤",
    "phone": "010-5962-6425",
    "kakao_id": "",
    "telegram_id": "",
    "hours": "AM 10:00 ~ AM 05:00",
    "thumbnail": "https://dkxm8.com/data/file/main/1728182447_fbv3wNtj_9fe9204c61131f5d7f5a6a359e67abddd353c65e.jpg",
    "area": "대전",
    "region": "대전/충청"
  },
  {
    "title": "[건마] 이진아1인샵",
    "url": "https://dkxm8.com/profile_popup.php?idx=1358906&gubun=1",
    "description": "대전 괴정 용문 롯데",
    "phone": "010-5926-9502",
    "kakao_id": "",
    "telegram_id": "",
    "hours": "오전 12:00 ~ 저녁 11:00",
    "thumbnail": "https://dkxm8.com/data/file/main/1332623111_EkLPMONf_8821ceeef4e6369a85cfd84f321125674ac22444.jpg",
    "area": "대전",
    "region": "대전/충청"
  },
  {
    "title": "[건마] WTFSL",
    "url": "https://dkxm8.com/profile_popup.php?idx=1333422&gubun=1",
    "description": "대전 스웨디시 NO.1세컨드",
    "phone": "010-3440-1462",
    "kakao_id": "",
    "telegram_id": "",
    "hours": "오후12시부터 오전05시까지",
    "thumbnail": "https://dkxm8.com/data/file/main/2699961655_4NqwyKha_4399efb120a80ffd0bb99a58b350349dfd268790.jpg",
    "area": "대전",
    "region": "대전/충청"
  },
  {
    "title": "[건마] 이달의소녀+",
    "url": "https://dkxm8.com/profile_popup.php?idx=1247991&gubun=1",
    "description": "❤️NF이쁘니 오빠들여기야❤️",
    "phone": "❣️010-5712-7825❣️",
    "kakao_id": "",
    "telegram_id": "",
    "hours": "❣️오늘은 소녀들과 함께❣️",
    "thumbnail": "https://dkxm8.com/data/file/main/1332623107_msVp0Mvb_771532adca2a5101ab72dd8bd52822b237183ecd.jpg",
    "area": "대전",
    "region": "대전/충청"
  },
  {
    "title": "[휴게텔] 싸와디태국출장",
    "url": "https://dkxm8.com/profile_popup.php?idx=712496&gubun=1",
    "description": "뉴페 왔어요!!!",
    "phone": "010-9529-8864",
    "kakao_id": "",
    "telegram_id": "",
    "hours": "PM 08:00 ~ AM 05:00",
    "thumbnail": "https://dkxm8.com/data/file/main/1728182447_0xa3FcSp_3a8e71ca7965209ca23d7fc148a74d0841b9124c.jpg",
    "area": "대전",
    "region": "대전/충청"
  },
  {
    "title": "[휴게텔] 떡치GO",
    "url": "https://dkxm8.com/profile_popup.php?idx=990919&gubun=1",
    "description": "대전 비래동",
    "phone": "010-2142-5675",
    "kakao_id": "",
    "telegram_id": "",
    "hours": "24시간",
    "thumbnail": "https://dkxm8.com/data/file/main/1728182447_ISqc7TQ1_c7004a559b82b43b2ef094b7e6e22cfb9cc66602.jpg",
    "area": "대전",
    "region": "대전/충청"
  },
  {
    "title": "[휴게텔] 히든",
    "url": "https://dkxm8.com/profile_popup.php?idx=1251080&gubun=1",
    "description": "관평동 ♡NF다수♡",
    "phone": "010-9555-9047",
    "kakao_id": "",
    "telegram_id": "",
    "hours": "PM 1:00 ~ AM 3:00",
    "thumbnail": "https://dkxm8.com/data/file/main/2699961655_C4iEwbVa_488c2f100c1312963e15df9db30f6204876a1c91.jpg",
    "area": "대전",
    "region": "대전/충청"
  },
  {
    "title": "[룸/풀사롱] 제니실장",
    "url": "https://dkxm8.com/profile_popup.php?idx=1299780&gubun=1",
    "description": "유성호텔 맞은편",
    "phone": "010-2518-0260",
    "kakao_id": "",
    "telegram_id": "",
    "hours": "24시간",
    "thumbnail": "https://dkxm8.com/data/file/main/1502831880_IULsOWnK_e2101f51389e7a375bde158ab64677a67b64018e.jpg",
    "area": "대전",
    "region": "대전/충청"
  },
  {
    "title": "[건마] 신난다",
    "url": "https://dkxm8.com/profile_popup.php?idx=1261638&gubun=1",
    "description": "대전광역시 중구 태평동",
    "phone": "010-5853-5377",
    "kakao_id": "",
    "telegram_id": "",
    "hours": "24시간",
    "thumbnail": "https://dkxm8.com/data/file/main/1728182447_4vYSQmjF_2317a3760a31286dca3f7f9f2d90ff244f5df418.jpg",
    "area": "대전",
    "region": "대전/충청"
  },
  {
    "title": "[건마] 정원아로마",
    "url": "https://dkxm8.com/profile_popup.php?idx=1323640&gubun=1",
    "description": "대전시 태평동",
    "phone": "010-5562-6523",
    "kakao_id": "",
    "telegram_id": "",
    "hours": "24시간",
    "thumbnail": "https://dkxm8.com/data/file/main/2699961699_HX5x7fBw_636291ec676c9ba2cd065d5e5e0978e370834257.jpg",
    "area": "대전",
    "region": "대전/충청"
  },
  {
    "title": "[건마] 별 스웨디시",
    "url": "https://dkxm8.com/profile_popup.php?idx=1081675&gubun=1",
    "description": "월평.한국이쁜이*매니저상시모집",
    "phone": "010-2653-3500",
    "kakao_id": "",
    "telegram_id": "",
    "hours": "❤️SM가능샾❤️",
    "thumbnail": "https://dkxm8.com/data/file/main/2669311878_jwdvVFx3_d4a9cc07611aec591f2d12e310cf59a0c8b5a21e.jpg",
    "area": "대전",
    "region": "대전/충청"
  },
  {
    "title": "[휴게텔] 오프화이트",
    "url": "https://dkxm8.com/profile_popup.php?idx=1147795&gubun=1",
    "description": "✨유성✨대전1등 모범업소✨",
    "phone": "✨010-5571-2133✨",
    "kakao_id": "",
    "telegram_id": "",
    "hours": "✨PM13:00~AM05:00✨",
    "thumbnail": "https://dkxm8.com/data/file/main/1728182447_plZ9q8vT_569313e1708ad3257673e03803673aafbac63063.jpg",
    "area": "대전",
    "region": "대전/충청"
  },
  {
    "title": "[휴게텔] 빽다방",
    "url": "https://dkxm8.com/profile_popup.php?idx=942907&gubun=1",
    "description": "⭕중구⭕대흥 선화 오룡 용문⭕",
    "phone": "✅010-5807-6411✅",
    "kakao_id": "",
    "telegram_id": "",
    "hours": "☀️추천업소☀️전원한국☀️",
    "thumbnail": "https://dkxm8.com/data/file/main/1728182871_NYb3Bq57_4a9bc5bb663e4ccbabc080b834f163b1ceb52764.jpg",
    "area": "대전",
    "region": "대전/충청"
  },
  {
    "title": "[트젠/리얼] 매운맛",
    "url": "https://dkxm8.com/profile_popup.php?idx=648377&gubun=1",
    "description": "유성 봉명동 홈플러스",
    "phone": "010-7421-1643",
    "kakao_id": "",
    "telegram_id": "",
    "hours": "PM 12:00 ~ AM 05:00",
    "thumbnail": "https://dkxm8.com/data/file/main/1728182871_fDUrT8HW_2900a253f73bf031f691333f606c9698b4c6756e.jpg",
    "area": "대전",
    "region": "대전/충청"
  },
  {
    "title": "[건마] 여신1인샵",
    "url": "https://dkxm8.com/profile_popup.php?idx=1346085&gubun=1",
    "description": "❤️봉명동❤️탑클래스No.1",
    "phone": "✨010-7346-6027✨",
    "kakao_id": "",
    "telegram_id": "",
    "hours": "✨AM11:30~AM04:00✨",
    "thumbnail": "https://dkxm8.com/data/file/main/2699961699_dUf1XHFi_c4d2f262412702bb7d48d94336db2b30a290e678.jpg",
    "area": "대전",
    "region": "대전/충청"
  },
  {
    "title": "[건마] 유나1인샵",
    "url": "https://dkxm8.com/profile_popup.php?idx=&gubun=1",
    "description": "NF 연애 옵션 맛집",
    "phone": "010-3386-7159",
    "kakao_id": "",
    "telegram_id": "",
    "hours": "저녁8시~새벽3시",
    "thumbnail": "https://dkxm8.com/img/temp_thum.jpg",
    "area": "대전",
    "region": "대전/충청"
  },
  {
    "title": "[건마] 윤슬",
    "url": "https://dkxm8.com/profile_popup.php?idx=1194366&gubun=1",
    "description": "❤️15일부터정상영업합니다❤️",
    "phone": "☎️010-5853-5802☎️",
    "kakao_id": "",
    "telegram_id": "",
    "hours": "New섹끼코스튬❤️사르르하드컨셉",
    "thumbnail": "https://dkxm8.com/data/file/main/1728182871_tbA7nTG0_f0143cc459d5c23351743d443d2b43e22581a6ec.jpg",
    "area": "대전",
    "region": "대전/충청"
  },
  {
    "title": "[휴게텔] 응급실",
    "url": "https://dkxm8.com/profile_popup.php?idx=1208448&gubun=1",
    "description": "유성군 봉명동",
    "phone": "010-7591-5307",
    "kakao_id": "",
    "telegram_id": "",
    "hours": "24시간",
    "thumbnail": "https://dkxm8.com/data/file/main/1332623112_VzS6BeKF_f9fbb7efe38bd8bd725267ed596507dff3ec4d9f.jpg",
    "area": "대전",
    "region": "대전/충청"
  },
  {
    "title": "[휴게텔] 샤르망",
    "url": "https://dkxm8.com/profile_popup.php?idx=1171807&gubun=1",
    "description": "대전시 서구 둔지로",
    "phone": "010-2436-4149",
    "kakao_id": "",
    "telegram_id": "",
    "hours": "24시간 연중무휴",
    "thumbnail": "https://dkxm8.com/data/file/main/1728182871_0ByPLTEU_98b3ffbdc57e6af7cd9351d2022d121339843371.jpg",
    "area": "대전",
    "region": "대전/충청"
  },
  {
    "title": "[건마] 갓핸드",
    "url": "https://dkxm8.com/profile_popup.php?idx=648615&gubun=1",
    "description": "NF한국❤️립핸플6장❤️월평동",
    "phone": "❤️010-7609-8704❤️",
    "kakao_id": "",
    "telegram_id": "",
    "hours": "❤️오후1시~새벽5시❤️",
    "thumbnail": "https://dkxm8.com/data/file/main/1728182447_2dNmcFHv_a1b317b232c8716aeef75a9e3bc7cca977705e04.jpg",
    "area": "대전",
    "region": "대전/충청"
  },
  {
    "title": "[오피] 더온디자인",
    "url": "https://dkxm8.com/profile_popup.php?idx=1024018&gubun=1",
    "description": "전국",
    "phone": "텔레그램 :onon5858",
    "kakao_id": "",
    "telegram_id": "",
    "hours": "24시간",
    "thumbnail": "https://dkxm8.com/data/file/main/1728182871_Dz3GQAKl_b6e81819d0751543eb320d16689ddf619cdd627a.jpg",
    "area": "대전",
    "region": "대전/충청"
  },
  {
    "title": "[건마] 이상한스웨디시",
    "url": "https://dkxm8.com/profile_popup.php?idx=1064694&gubun=1",
    "description": "대전 서구 탄방동",
    "phone": "010-3422-1687",
    "kakao_id": "",
    "telegram_id": "",
    "hours": "24시간",
    "thumbnail": "https://dkxm8.com/data/file/main/1728182871_0wXQYTVL_ac05aae638ad5283ecbf4bc4f37d5729334bb438.jpg",
    "area": "대전",
    "region": "대전/충청"
  },
  {
    "title": "[건마] 너랑,나랑",
    "url": "https://dkxm8.com/profile_popup.php?idx=1327103&gubun=1",
    "description": "❤️유성 너랑나랑 공주들과❤️",
    "phone": "010-7519-4401",
    "kakao_id": "",
    "telegram_id": "",
    "hours": "❤️실제 20대 와꾸족 환영❤️",
    "thumbnail": "https://dkxm8.com/data/file/main/2699961655_HTmLWt0g_c552b91c2ef6ec507ea1e4128ca4a3674dffe212.jpg",
    "area": "대전",
    "region": "대전/충청"
  },
  {
    "title": "[룸/풀사롱] 예쁜하린실장",
    "url": "https://dkxm8.com/profile_popup.php?idx=648441&gubun=1",
    "description": "⛔➿✅유성봉명동✅➿⛔",
    "phone": "010-8412-1753",
    "kakao_id": "",
    "telegram_id": "",
    "hours": "❤️365일❤️24시간❤️",
    "thumbnail": "https://dkxm8.com/data/file/main/1332623114_Pp9vQ7fk_eeedba71e92a6a57323bd2018c7d21e9124ef60e.jpg",
    "area": "대전",
    "region": "대전/충청"
  },
  {
    "title": "[건마] 구구단1인샵",
    "url": "https://dkxm8.com/profile_popup.php?idx=1225011&gubun=1",
    "description": "❤️서구 둔산20대극초반!❤️",
    "phone": "❤️010-2875-5892❤️",
    "kakao_id": "",
    "telegram_id": "",
    "hours": "❤️와꾸&썹수&슬랜!❤️",
    "thumbnail": "https://dkxm8.com/data/file/main/1728182447_ZdKsqo1A_45720efdca1d192802423dc92c96e49fbc59bc1a.jpg",
    "area": "대전",
    "region": "대전/충청"
  },
  {
    "title": "[주점] 텐프로",
    "url": "https://dkxm8.com/profile_popup.php?idx=1305207&gubun=1",
    "description": "5성급 호텔 시설",
    "phone": "010-2486-3692",
    "kakao_id": "",
    "telegram_id": "",
    "hours": "✴️✴️24시간✴️✴️",
    "thumbnail": "https://dkxm8.com/data/file/main/2669311878_i0AvfepE_97096e18b442dcf27901e0e308b441742c311b9f.jpg",
    "area": "대전",
    "region": "대전/충청"
  },
  {
    "title": "[주점] 안석구실장",
    "url": "https://dkxm8.com/profile_popup.php?idx=648437&gubun=1",
    "description": "⛔➿✅✡️호텔 정통룸✡️✅➿⛔",
    "phone": "010-7591-5950",
    "kakao_id": "",
    "telegram_id": "",
    "hours": "✡️✡️24시간✡️✡️",
    "thumbnail": "https://dkxm8.com/data/file/main/1728182447_3VGMiexm_fd87e6c5d4da572b29b491d87c627dd314458004.jpg",
    "area": "대전",
    "region": "대전/충청"
  },
  {
    "title": "[룸/풀사롱] 대전1등룸싸롱",
    "url": "https://dkxm8.com/profile_popup.php?idx=648513&gubun=1",
    "description": "⭕️⭕️⭕️⭕️⭕️⭕️⭕️",
    "phone": "010-5733-8437",
    "kakao_id": "",
    "telegram_id": "",
    "hours": "✡️⛔24시 연중무휴⛔✡️",
    "thumbnail": "https://dkxm8.com/data/file/main/1332623107_WVHGfh0u_3dbda7ba09d6e2bf0b72ce16b5680a74e729ee34.jpg",
    "area": "대전",
    "region": "대전/충청"
  },
  {
    "title": "[건마] 로진",
    "url": "https://dkxm8.com/profile_popup.php?idx=1232622&gubun=1",
    "description": "❣️대전유성관평동세종신탄전민동",
    "phone": "010 5735 1177",
    "kakao_id": "",
    "telegram_id": "",
    "hours": "❤️예빈출근❤️",
    "thumbnail": "https://dkxm8.com/data/file/main/1728182447_ZQ4PfA0r_0a20fdd996c11b94d2b2e40f7d5bb903b9b7fd9b.jpg",
    "area": "대전",
    "region": "대전/충청"
  },
  {
    "title": "[건마] 크림범벅",
    "url": "https://dkxm8.com/profile_popup.php?idx=&gubun=1",
    "description": "대전유성구 관평동",
    "phone": "010-3298-3339",
    "kakao_id": "",
    "telegram_id": "",
    "hours": "24시간",
    "thumbnail": "https://dkxm8.com/img/temp_thum.jpg",
    "area": "대전",
    "region": "대전/충청"
  },
  {
    "title": "[건마] 젤리깡패",
    "url": "https://dkxm8.com/profile_popup.php?idx=1191363&gubun=1",
    "description": "대전 유성구 관평동",
    "phone": "010-5193-6866",
    "kakao_id": "",
    "telegram_id": "",
    "hours": "24시간",
    "thumbnail": "https://dkxm8.com/data/file/main/1332623112_mPC4g9lZ_08bbadbc5ca9c950fa912e8d99f1dc2adc8c5b65.jpg",
    "area": "대전",
    "region": "대전/충청"
  },
  {
    "title": "[건마] 코코스웨디시",
    "url": "https://dkxm8.com/profile_popup.php?idx=1296908&gubun=1",
    "description": "❣️연아복귀❣️",
    "phone": "010-9727-2368",
    "kakao_id": "",
    "telegram_id": "",
    "hours": "PM 12:00 ~ AM 04:00",
    "thumbnail": "https://dkxm8.com/data/file/main/1502831947_Vx2OQzUq_df93a73d31a3750d955ac5d6e5d43ca2afcae25b.jpg",
    "area": "대전",
    "region": "대전/충청"
  },
  {
    "title": "[건마] S라인",
    "url": "https://dkxm8.com/profile_popup.php?idx=1081056&gubun=1",
    "description": "대전시 유성구 관평동",
    "phone": "010-8008-4565",
    "kakao_id": "",
    "telegram_id": "",
    "hours": "24시간",
    "thumbnail": "https://dkxm8.com/data/file/main/1728182871_kRhTVxo7_0c132d8b8a2497684e0fa993760f9e7ee8ef0669.jpg",
    "area": "대전",
    "region": "대전/충청"
  },
  {
    "title": "[안마] 알프스",
    "url": "https://dkxm8.com/profile_popup.php?idx=1056586&gubun=1",
    "description": "⛔유성1등 전통안마⛔하드코어⛔",
    "phone": "❤️010-5865-8461❤️",
    "kakao_id": "",
    "telegram_id": "",
    "hours": "✡️24시 정상영업 풀코스✡️",
    "thumbnail": "https://dkxm8.com/data/file/main/1728182447_TfUBFhAC_f050f7a4c2e30ed7da97ace0f239cfc7e7f70e31.jpg",
    "area": "대전",
    "region": "대전/충청"
  },
  {
    "title": "[안마] 벤틀리안마",
    "url": "https://dkxm8.com/profile_popup.php?idx=1056583&gubun=1",
    "description": "❣확실한서비스❣역대급뉴페등장❣",
    "phone": "010-5865-8461",
    "kakao_id": "",
    "telegram_id": "",
    "hours": "✴️24시✴️재방문 1위✴️",
    "thumbnail": "https://dkxm8.com/data/file/main/1728182447_0BNiTslZ_2c159c5f91c16014ee6d5c2b76b07097a1cf256d.jpg",
    "area": "대전",
    "region": "대전/충청"
  },
  {
    "title": "[안마] 메이드",
    "url": "https://dkxm8.com/profile_popup.php?idx=981830&gubun=1",
    "description": "✅유성끝판왕✅초호화라인업✅",
    "phone": "010-5865-8461",
    "kakao_id": "",
    "telegram_id": "",
    "hours": "❤️24시❤️극강하드20대❤️",
    "thumbnail": "https://dkxm8.com/data/file/main/1728182871_qp2HDR6I_22f46501d68b8907ffa26f4e2b813fb85ab1898d.jpg",
    "area": "대전",
    "region": "대전/충청"
  },
  {
    "title": "[휴게텔] 대박집",
    "url": "https://dkxm8.com/profile_popup.php?idx=957170&gubun=1",
    "description": "대전 동구 용전동",
    "phone": "010-7929-4494",
    "kakao_id": "",
    "telegram_id": "",
    "hours": "24시간",
    "thumbnail": "https://dkxm8.com/data/file/main/1728182447_Udh6gjPX_c702040c1e820a33b186522ef7227d512dbe0a52.jpg",
    "area": "대전",
    "region": "대전/충청"
  },
  {
    "title": "[건마] 베이비걸",
    "url": "https://dkxm8.com/profile_popup.php?idx=1350464&gubun=1",
    "description": "대전시 유성구 봉명동 온천로",
    "phone": "010-7301-0176",
    "kakao_id": "",
    "telegram_id": "",
    "hours": "24시간",
    "thumbnail": "https://dkxm8.com/data/file/main/1728182871_djLAuafG_203a9b368206a97e03f270d59e5240db3be0244d.jpg",
    "area": "대전",
    "region": "대전/충청"
  },
  {
    "title": "[휴게텔] 캣츠미",
    "url": "https://dkxm8.com/profile_popup.php?idx=1352034&gubun=1",
    "description": "❤️출장&갤러리아도보5분|",
    "phone": "010-2151-7008",
    "kakao_id": "",
    "telegram_id": "",
    "hours": "PM:2시~AM4시",
    "thumbnail": "https://dkxm8.com/data/file/main/1332623112_sMohmA5O_74a66d35b08dd7f941d2b046ff1cd76ae1090656.jpg",
    "area": "대전",
    "region": "대전/충청"
  },
  {
    "title": "[안마] 센스안마",
    "url": "https://dkxm8.com/profile_popup.php?idx=1056581&gubun=1",
    "description": "❤대전맛집❤일본 AV 시스템❤️",
    "phone": "010-5865-8461",
    "kakao_id": "",
    "telegram_id": "",
    "hours": "✅유성 전체1등 즐달보장✅",
    "thumbnail": "https://dkxm8.com/data/file/main/1728182447_IByYJ2H9_9a9598b001594c68542894c3e195a570dd4f98f7.jpg",
    "area": "대전",
    "region": "대전/충청"
  },
  {
    "title": "[휴게텔] 세븐일레븐",
    "url": "https://dkxm8.com/profile_popup.php?idx=1362220&gubun=1",
    "description": "❤️성정동,두정동휴게텔맛집❤️",
    "phone": "010-2181-6527",
    "kakao_id": "",
    "telegram_id": "",
    "hours": "12시-5시",
    "thumbnail": "https://dkxm8.com/data/file/main/2669311878_UzQldkOK_400b58ff93fd124b50243ae93a1e595dd550238a.jpg",
    "area": "천안",
    "region": "대전/충청"
  },
  {
    "title": "[휴게텔] 러브미",
    "url": "https://dkxm8.com/profile_popup.php?idx=648338&gubun=1",
    "description": "✨전국 1등✨베트남✨태국✨",
    "phone": "010-5670-6198",
    "kakao_id": "",
    "telegram_id": "",
    "hours": "PM 12:00 ~ AM 04:00",
    "thumbnail": "https://dkxm8.com/data/file/main/2699961636_hkMNBZIW_8f33f3241f8021685eb4c4f3658cc39320b90bd3.jpg",
    "area": "천안",
    "region": "대전/충청"
  },
  {
    "title": "[휴게텔] 1004",
    "url": "https://dkxm8.com/profile_popup.php?idx=648324&gubun=1",
    "description": "천안시 두정 성정동",
    "phone": "010-2180-6571",
    "kakao_id": "",
    "telegram_id": "",
    "hours": "PM 01:00 ~ AM 04:00",
    "thumbnail": "https://dkxm8.com/data/file/main/1728182871_amKLHUjd_a573475683f4791a5c17fa557067a6d72dfe8032.jpg",
    "area": "천안",
    "region": "대전/충청"
  },
  {
    "title": "[휴게텔] 바나나우유",
    "url": "https://dkxm8.com/profile_popup.php?idx=1362199&gubun=1",
    "description": "천안 두정동 성정동",
    "phone": "010-2436-2202",
    "kakao_id": "",
    "telegram_id": "",
    "hours": "PM 12:00 ~ AM 5:00",
    "thumbnail": "https://dkxm8.com/data/file/main/2669311878_ZvK0zw7P_3a961c433a4d3d1e126945ffe0bff7548e6f2711.jpg",
    "area": "천안",
    "region": "대전/충청"
  },
  {
    "title": "[룸/풀사롱] 색종이",
    "url": "https://dkxm8.com/profile_popup.php?idx=1264647&gubun=1",
    "description": "충청 천안 성정동",
    "phone": "010-7594-5381",
    "kakao_id": "",
    "telegram_id": "",
    "hours": "PM 07:00 ~ AM 10:00",
    "thumbnail": "https://dkxm8.com/data/file/main/1332623111_OJWM5RFf_538dacd5d50f44b18f699cb2a84d0a57c500ec26.jpg",
    "area": "천안",
    "region": "대전/충청"
  },
  {
    "title": "[건마] 시크릿스파",
    "url": "https://dkxm8.com/profile_popup.php?idx=1155423&gubun=1",
    "description": "전원한국 천안최고의 마사지힐링",
    "phone": "010-5683-5180",
    "kakao_id": "",
    "telegram_id": "",
    "hours": "낮12~ 새벽5",
    "thumbnail": "https://dkxm8.com/data/file/main/1728182871_hNqnIsMS_6fb860bd41b094ad34bfe1ebb4b0df0e4e65c430.jpg",
    "area": "천안",
    "region": "대전/충청"
  },
  {
    "title": "[키스방] 닥터k",
    "url": "https://dkxm8.com/profile_popup.php?idx=648371&gubun=1",
    "description": "⛔⭐내상치유전문 닥터k⭐⛔",
    "phone": "✡️010-7738-7572✡️",
    "kakao_id": "",
    "telegram_id": "",
    "hours": "⏰AM 10:00 ~ AM 04:00",
    "thumbnail": "https://dkxm8.com/data/file/main/1728182447_poVgcU51_08db8f1913893b567cfe06a9367c86c66a1dbbb1.jpg",
    "area": "천안",
    "region": "대전/충청"
  },
  {
    "title": "[건마] 한국교복출장",
    "url": "https://dkxm8.com/profile_popup.php?idx=1251236&gubun=1",
    "description": "❣️❣️천안아산전지역❣️❣️|",
    "phone": "010-8288-9483",
    "kakao_id": "",
    "telegram_id": "",
    "hours": "24시 천안 아산 실시간 프로필",
    "thumbnail": "https://dkxm8.com/data/file/main/1332623114_kVrK958O_352f3f3747ce3037f39b5e39a833f4e5b65ebe42.jpg",
    "area": "천안",
    "region": "대전/충청"
  },
  {
    "title": "[건마] 일프로스웨디시",
    "url": "https://dkxm8.com/profile_popup.php?idx=1287603&gubun=1",
    "description": "불당동1등 1%스웨디시",
    "phone": "010-8384-6572",
    "kakao_id": "",
    "telegram_id": "",
    "hours": "AM 02:00 ~ AM 05:00",
    "thumbnail": "https://dkxm8.com/data/file/main/1502831950_d7rg3LQK_ede0dd54890985489e3ebfe1c67a0cd7b5f8c509.jpg",
    "area": "천안",
    "region": "대전/충청"
  },
  {
    "title": "[건마] 퍼스트스웨디시",
    "url": "https://dkxm8.com/profile_popup.php?idx=822973&gubun=1",
    "description": "♥성정동신규오픈 한국인관리사♥",
    "phone": "010-5645-0944",
    "kakao_id": "",
    "telegram_id": "",
    "hours": "AM11:00 ~ AM03:00",
    "thumbnail": "https://dkxm8.com/data/file/main/1502831950_4LZydV1e_0deb35aa49357346047642277eebc8ba7b5ad0da.jpg",
    "area": "천안",
    "region": "대전/충청"
  },
  {
    "title": "[건마] 킹스파74",
    "url": "https://dkxm8.com/profile_popup.php?idx=1323196&gubun=1",
    "description": "⚜️지금 2만발 할인중⚜️",
    "phone": "010-9903-4770",
    "kakao_id": "",
    "telegram_id": "",
    "hours": "AM 11:00 ~ AM 04:00",
    "thumbnail": "https://dkxm8.com/data/file/main/1502831918_JOTlm09B_815bf2ec072731918c880e32e01dc46afb5b21d3.jpg",
    "area": "천안",
    "region": "대전/충청"
  },
  {
    "title": "[건마] 예쁜천사",
    "url": "https://dkxm8.com/profile_popup.php?idx=1329866&gubun=1",
    "description": "충청남도 천안시 쌍용동",
    "phone": "010-5809-6670",
    "kakao_id": "",
    "telegram_id": "",
    "hours": "24시간",
    "thumbnail": "https://dkxm8.com/data/file/main/2699961655_OHtqjRro_3a246347c85390d346d274b4482cc39dbf046bde.jpg",
    "area": "천안",
    "region": "대전/충청"
  },
  {
    "title": "[주점] 만져줘풀싸롱",
    "url": "https://dkxm8.com/profile_popup.php?idx=1231272&gubun=1",
    "description": "충남 천안시 성정동 상업지구",
    "phone": "010-2174-8617",
    "kakao_id": "",
    "telegram_id": "",
    "hours": "저녁 6시 30분 부터 아침 10시",
    "thumbnail": "https://dkxm8.com/data/file/main/1502831950_oQ8TcwXN_320eb9c04bcfe5dfaf892f81c7a3302180ff9e93.jpg",
    "area": "천안",
    "region": "대전/충청"
  },
  {
    "title": "[건마] 다낭스웨디시",
    "url": "https://dkxm8.com/profile_popup.php?idx=1301868&gubun=1",
    "description": "천안 두정동 ✨베트남 여신들✨",
    "phone": "010-5846-6583",
    "kakao_id": "",
    "telegram_id": "",
    "hours": "12:00~AM 6:00",
    "thumbnail": "https://dkxm8.com/data/file/main/1502831880_MhOa631m_1b1d327153d969d2594a317bfd31c289fb144ea4.jpg",
    "area": "천안",
    "region": "대전/충청"
  },
  {
    "title": "[건마] A스파",
    "url": "https://dkxm8.com/profile_popup.php?idx=981984&gubun=1",
    "description": "❤️천안불당핫플레스한국인관리사",
    "phone": "010-2814-2221",
    "kakao_id": "",
    "telegram_id": "",
    "hours": "⏰PM 12:00 ~ AM 05:00",
    "thumbnail": "https://dkxm8.com/data/file/main/2699961699_gO18mNEL_951f5fbf534b16086d8e76777b6ff76adcd13d0f.jpg",
    "area": "천안",
    "region": "대전/충청"
  },
  {
    "title": "[건마] 에이마사지",
    "url": "https://dkxm8.com/profile_popup.php?idx=1140513&gubun=1",
    "description": "천안시",
    "phone": "010-7400-6413",
    "kakao_id": "",
    "telegram_id": "",
    "hours": "PM 07:00 ~ AM 06:00",
    "thumbnail": "https://dkxm8.com/data/file/main/1728182871_xJK14YVg_cd88dd2fe7a4f93f94cb4e62eae23f938f7b4189.jpg",
    "area": "천안",
    "region": "대전/충청"
  },
  {
    "title": "[건마] 열매스웨디시",
    "url": "https://dkxm8.com/profile_popup.php?idx=1365178&gubun=1",
    "description": "천안시 성정동 롯데마트 부근",
    "phone": "010-2313-9800",
    "kakao_id": "",
    "telegram_id": "",
    "hours": "PM 12:00 ~ AM 03:00",
    "thumbnail": "https://dkxm8.com/data/file/main/2669311878_oh9uL56r_d6478f61a582e244628a10943b8a40c114c865f7.jpg",
    "area": "천안",
    "region": "대전/충청"
  },
  {
    "title": "[휴게텔] TOP쉬멜",
    "url": "https://dkxm8.com/profile_popup.php?idx=848610&gubun=1",
    "description": "천안(두정동,성정동인근)",
    "phone": "010-5776-6541",
    "kakao_id": "",
    "telegram_id": "",
    "hours": "PM 01:00 ~ AM 05:00",
    "thumbnail": "https://dkxm8.com/data/file/main/1728182447_jqwe1W9n_3a24e22458bc684935687c9ea336f5f8416389a9.jpg",
    "area": "천안",
    "region": "대전/충청"
  },
  {
    "title": "[건마] 체리1인샵",
    "url": "https://dkxm8.com/profile_popup.php?idx=1252904&gubun=1",
    "description": "❣️신규업소❣️최상퀄리티",
    "phone": "✡️010-5719-6848✡️",
    "kakao_id": "",
    "telegram_id": "",
    "hours": "✡️AM11:00~AM05:00✡️",
    "thumbnail": "https://dkxm8.com/data/file/main/1332623108_zhRJyf0x_50aa5bd969de85892689ca54091468d1ce7e20e4.jpg",
    "area": "천안",
    "region": "대전/충청"
  },
  {
    "title": "[휴게텔] 1004",
    "url": "https://dkxm8.com/profile_popup.php?idx=648324&gubun=1",
    "description": "천안시 두정 성정동",
    "phone": "010-2180-6571",
    "kakao_id": "",
    "telegram_id": "",
    "hours": "PM 01:00 ~ AM 04:00",
    "thumbnail": "https://dkxm8.com/data/file/main/1728182871_amKLHUjd_a573475683f4791a5c17fa557067a6d72dfe8032.jpg",
    "area": "천안",
    "region": "대전/충청"
  },
  {
    "title": "[휴게텔] 맛동산",
    "url": "https://dkxm8.com/profile_popup.php?idx=1362198&gubun=1",
    "description": "천안 성정동 두정동",
    "phone": "010-7517-7900",
    "kakao_id": "",
    "telegram_id": "",
    "hours": "PM 12:00 ~ AM 05:00",
    "thumbnail": "https://dkxm8.com/data/file/main/2669311878_lv89GkN5_78352c5865fcf81936ca19bbeabf8cd24ff3b36d.jpg",
    "area": "천안",
    "region": "대전/충청"
  },
  {
    "title": "[키스방] 셀린느",
    "url": "https://dkxm8.com/profile_popup.php?idx=1171996&gubun=1",
    "description": "⭕✅S+비교불가 size✅⭕️",
    "phone": "010-3973-8464",
    "kakao_id": "",
    "telegram_id": "",
    "hours": "오전10시~새벽2시",
    "thumbnail": "https://dkxm8.com/data/file/main/1728182871_GJbTwmeI_2acd79a307fd878bdcd81070cfa4d153c150196a.jpg",
    "area": "천안",
    "region": "대전/충청"
  },
  {
    "title": "[건마] 여학생들",
    "url": "https://dkxm8.com/profile_popup.php?idx=1088964&gubun=1",
    "description": "천안시 성정동 롯데마트 부근",
    "phone": "010-7652-2209",
    "kakao_id": "",
    "telegram_id": "",
    "hours": "AM11:00 ~AM 07:00",
    "thumbnail": "https://dkxm8.com/data/file/main/1728182871_s7QdLfrt_bae908d040756b77d257226a219f0f4aa2d82665.jpg",
    "area": "천안",
    "region": "대전/충청"
  },
  {
    "title": "[룸/풀사롱] 노브라셔츠룸",
    "url": "https://dkxm8.com/profile_popup.php?idx=1276855&gubun=1",
    "description": "❤️천안성정동 화끈한수위❤️",
    "phone": "010-9538-4569",
    "kakao_id": "",
    "telegram_id": "",
    "hours": "밤 7시 ~ 아침 11시까지",
    "thumbnail": "https://dkxm8.com/data/file/main/1332623114_roMzuXT5_0a64655359d91efe8f61aa492f5771cf6600eb4b.jpg",
    "area": "천안",
    "region": "대전/충청"
  },
  {
    "title": "[휴게텔] 짝꿍",
    "url": "https://dkxm8.com/profile_popup.php?idx=1309764&gubun=1",
    "description": "❤️1등/와꾸/마인드/단체❤️",
    "phone": "010-2303-3205",
    "kakao_id": "",
    "telegram_id": "",
    "hours": "pm1:00 ~ am5:00",
    "thumbnail": "https://dkxm8.com/data/file/main/2699961674_pqWZYkwr_66f5b411ef35d1adffba5aedbe82c4f4067d202f.jpg",
    "area": "천안",
    "region": "대전/충청"
  },
  {
    "title": "[휴게텔] 세븐일레븐",
    "url": "https://dkxm8.com/profile_popup.php?idx=1362220&gubun=1",
    "description": "❤️성정동,두정동휴게텔맛집❤️",
    "phone": "010-2181-6527",
    "kakao_id": "",
    "telegram_id": "",
    "hours": "12시-5시",
    "thumbnail": "https://dkxm8.com/data/file/main/2669311878_UzQldkOK_400b58ff93fd124b50243ae93a1e595dd550238a.jpg",
    "area": "천안",
    "region": "대전/충청"
  },
  {
    "title": "[휴게텔] 휴게소",
    "url": "https://dkxm8.com/profile_popup.php?idx=1140047&gubun=1",
    "description": "❤️역대급NF전원20대영입❤️",
    "phone": "010-5734-9572",
    "kakao_id": "",
    "telegram_id": "",
    "hours": "PM 12:00 ~ AM 05:00",
    "thumbnail": "https://dkxm8.com/data/file/main/1502832061_qxilZwRV_977fd61b6d0afe8be776a90ed1d552312726da60.jpg",
    "area": "천안",
    "region": "대전/충청"
  },
  {
    "title": "[오피] 쁘띠",
    "url": "https://dkxm8.com/profile_popup.php?idx=648514&gubun=1",
    "description": "천안 성정동 두정동",
    "phone": "010-8059-3394",
    "kakao_id": "",
    "telegram_id": "",
    "hours": "AM 11:00 ~ AM 03:00",
    "thumbnail": "https://dkxm8.com/data/file/main/1332623114_VTGiNqBW_74fb66d59948f25da3fe895908b99f845132fff1.jpg",
    "area": "천안",
    "region": "대전/충청"
  },
  {
    "title": "[오피] 에로스",
    "url": "https://dkxm8.com/profile_popup.php?idx=1042365&gubun=1",
    "description": "⚡천안⚡성정동 두정동 인근⚡",
    "phone": "010-8107-3213",
    "kakao_id": "",
    "telegram_id": "",
    "hours": "✴낮 11:00 ~ 새벽 05:00✴",
    "thumbnail": "https://dkxm8.com/data/file/main/1728182447_izEQ19ua_f22e558285bfbfa357f254526b7f1bc070441f29.jpg",
    "area": "천안",
    "region": "대전/충청"
  },
  {
    "title": "[휴게텔] 러브미",
    "url": "https://dkxm8.com/profile_popup.php?idx=648338&gubun=1",
    "description": "✨전국 1등✨베트남✨태국✨",
    "phone": "010-5670-6198",
    "kakao_id": "",
    "telegram_id": "",
    "hours": "PM 12:00 ~ AM 04:00",
    "thumbnail": "https://dkxm8.com/data/file/main/2699961636_hkMNBZIW_8f33f3241f8021685eb4c4f3658cc39320b90bd3.jpg",
    "area": "천안",
    "region": "대전/충청"
  },
  {
    "title": "[건마] 세타마사지",
    "url": "https://dkxm8.com/profile_popup.php?idx=1025643&gubun=1",
    "description": "✔️ 세타마사지 ✔️",
    "phone": "✨ 010-8443-1689 ✨",
    "kakao_id": "",
    "telegram_id": "",
    "hours": "✨PM13:00 ~ AM03:30✨",
    "thumbnail": "https://dkxm8.com/data/file/main/1728182447_nBf9gdo4_08d7b9affcdc930143aa617ec65c7992d53b3b10.jpg",
    "area": "천안",
    "region": "대전/충청"
  },
  {
    "title": "[오피] 랜드마크",
    "url": "https://dkxm8.com/profile_popup.php?idx=1100492&gubun=1",
    "description": "성정동 스타나이트 부근",
    "phone": "010-2387-5623",
    "kakao_id": "",
    "telegram_id": "",
    "hours": "AM 11:00 ~ AM 04:00",
    "thumbnail": "https://dkxm8.com/data/file/main/1728182871_kImfdo9B_34d8a8bac2fe4a09d946864ef863aa72b57afb0c.jpg",
    "area": "천안",
    "region": "대전/충청"
  },
  {
    "title": "[주점] 하이터치룸",
    "url": "https://dkxm8.com/profile_popup.php?idx=1365597&gubun=1",
    "description": "천안시 서북구 성정동",
    "phone": "010-8325-5732",
    "kakao_id": "",
    "telegram_id": "",
    "hours": "오후 7시부터 ~ 오전 10시",
    "thumbnail": "https://dkxm8.com/data/file/main/2669311878_w3oO6euW_784225343aea5b4f43243f098d44ccc90bc7dbf3.jpg",
    "area": "천안",
    "region": "대전/충청"
  },
  {
    "title": "[건마] 미소녀s",
    "url": "https://dkxm8.com/profile_popup.php?idx=1279244&gubun=1",
    "description": "천안시 동남구 청당동",
    "phone": "010-3973-9763",
    "kakao_id": "",
    "telegram_id": "",
    "hours": "24시",
    "thumbnail": "https://dkxm8.com/data/file/main/1332623118_RUarXk5N_9cbad6c1e2144b1133a35774d91891eae235983f.jpg",
    "area": "천안",
    "region": "대전/충청"
  },
  {
    "title": "[오피] 페라리출장",
    "url": "https://dkxm8.com/profile_popup.php?idx=1360466&gubun=1",
    "description": "천안 전지역",
    "phone": "010-2806-1449",
    "kakao_id": "",
    "telegram_id": "",
    "hours": "PM 05:00 ~ AM 06:00",
    "thumbnail": "https://dkxm8.com/data/file/main/2669311928_txg6vnmq_23bbf37bae235ffdf8f9f0a54344fec3d331c71f.jpg",
    "area": "천안",
    "region": "대전/충청"
  },
  {
    "title": "[휴게텔] 나이키",
    "url": "https://dkxm8.com/profile_popup.php?idx=1264828&gubun=1",
    "description": "✨충남와꾸1등✨실물대박✨즐떡",
    "phone": "010-2704-5444",
    "kakao_id": "",
    "telegram_id": "",
    "hours": "PM 13:00 ~ AM 05:00",
    "thumbnail": "https://dkxm8.com/data/file/main/1332623111_BFaGvO9b_b5ee641e81933b7764f1280c3729cd9ea84b55d4.jpg",
    "area": "천안",
    "region": "대전/충청"
  },
  {
    "title": "[오피] 드림월드",
    "url": "https://dkxm8.com/profile_popup.php?idx=648562&gubun=1",
    "description": "천안성정동두정동",
    "phone": "010-9863-9445",
    "kakao_id": "",
    "telegram_id": "",
    "hours": "PM12:00~AM5:00",
    "thumbnail": "https://dkxm8.com/data/file/main/1332623114_A2kvBw5d_77d4179bc0f425d20a80b9460adbe2d717ec1012.jpg",
    "area": "천안",
    "region": "대전/충청"
  },
  {
    "title": "[건마] 샤인스파",
    "url": "https://dkxm8.com/profile_popup.php?idx=1352598&gubun=1",
    "description": "신불당 ❤️ 가성비 끝판!!",
    "phone": "041-565-3650",
    "kakao_id": "",
    "telegram_id": "",
    "hours": "전원 한국 관리사",
    "thumbnail": "https://dkxm8.com/data/file/main/1332623112_XD6M5CqN_888a594fb153c04d360193307ab0b2df70aeddf6.jpg",
    "area": "천안",
    "region": "대전/충청"
  },
  {
    "title": "[주점] 유흥의모든것",
    "url": "https://dkxm8.com/profile_popup.php?idx=1362769&gubun=1",
    "description": "신라스테이 부근",
    "phone": "010-5870-8103",
    "kakao_id": "",
    "telegram_id": "",
    "hours": "PM 02:00 ~ AM 05:00",
    "thumbnail": "https://dkxm8.com/data/file/main/2669311878_OyGtWLxC_ecb8ce05f98d409312a2f16b00cb16efa72055c0.jpg",
    "area": "천안",
    "region": "대전/충청"
  },
  {
    "title": "[휴게텔] 캣츠",
    "url": "https://dkxm8.com/profile_popup.php?idx=1210058&gubun=1",
    "description": "천안시♥베트남&태국매니져♥",
    "phone": "❤️010-7662-9709❤️",
    "kakao_id": "",
    "telegram_id": "",
    "hours": "PM12:00~AM05:00",
    "thumbnail": "https://dkxm8.com/data/file/main/1728182447_bexuFlIU_3a794812cd4a8618055ac13bfbe9bfe625c42145.jpg",
    "area": "천안",
    "region": "대전/충청"
  },
  {
    "title": "[오피] GALAXY",
    "url": "https://dkxm8.com/profile_popup.php?idx=843974&gubun=1",
    "description": "✨천안성정두정✨",
    "phone": "010-9521-6578",
    "kakao_id": "",
    "telegram_id": "",
    "hours": "PM 12:00 ~ AM 05:00",
    "thumbnail": "https://dkxm8.com/data/file/main/1728182447_cqH5jJSd_8b1dd62a4f6a09ac58913057cabd8291b289be5b.jpg",
    "area": "천안",
    "region": "대전/충청"
  },
  {
    "title": "[오피] 스타",
    "url": "https://dkxm8.com/profile_popup.php?idx=648594&gubun=1",
    "description": "❤️두정동 성정동 5분거리❤️",
    "phone": "010-4869-6669",
    "kakao_id": "",
    "telegram_id": "",
    "hours": "AM 10:00 ~ AM 05:00",
    "thumbnail": "https://dkxm8.com/data/file/main/1728182871_5pZyfzU2_3941e343481066bf60ec55221049f49da02fe8de.jpg",
    "area": "천안",
    "region": "대전/충청"
  },
  {
    "title": "[오피] 디즈니",
    "url": "https://dkxm8.com/profile_popup.php?idx=648242&gubun=1",
    "description": "✨디즈니20대이쁜이천국✨",
    "phone": "010-3454-3303",
    "kakao_id": "",
    "telegram_id": "",
    "hours": "PM 012:00 ~ AM 04:00",
    "thumbnail": "https://dkxm8.com/data/file/main/1728182447_Z1Mr87j6_113c2b891a6568773305bedf79d32ef73e19d4e1.jpg",
    "area": "천안",
    "region": "대전/충청"
  },
  {
    "title": "[룸/풀사롱] 하퍼&셔츠",
    "url": "https://dkxm8.com/profile_popup.php?idx=1366033&gubun=1",
    "description": "충남 천안시 서북구 성정동",
    "phone": "010-2301-6062",
    "kakao_id": "",
    "telegram_id": "",
    "hours": "밤 8시 ~ 아침 10까지",
    "thumbnail": "https://dkxm8.com/data/file/main/2669311878_yYIhQMaL_28659c199667f1274f77b4c814f2070a4df97954.jpg",
    "area": "천안",
    "region": "대전/충청"
  },
  {
    "title": "[건마] 장미아로마",
    "url": "https://dkxm8.com/profile_popup.php?idx=1146700&gubun=1",
    "description": "천안시 직산 새마을금고 근천",
    "phone": "010-9657-0266",
    "kakao_id": "",
    "telegram_id": "",
    "hours": "24시간연중무휴",
    "thumbnail": "https://dkxm8.com/data/file/main/1332623111_JMhuFgc9_4855c7c85ac7f46a702014106b08af4781c4e65d.jpg",
    "area": "천안",
    "region": "대전/충청"
  },
  {
    "title": "[룸/풀사롱] 이하늘실장",
    "url": "https://dkxm8.com/profile_popup.php?idx=1137817&gubun=1",
    "description": "천안 성정동 스타니이트근처",
    "phone": "010-2308-2472",
    "kakao_id": "",
    "telegram_id": "",
    "hours": "PM 06:30 ~ AM 09:00",
    "thumbnail": "https://dkxm8.com/data/file/main/1728182447_YRtXfuD1_45e51c85ca19b9f3dd2516a3d871b0193b063269.jpg",
    "area": "천안",
    "region": "대전/충청"
  },
  {
    "title": "[휴게텔] 파이널",
    "url": "https://dkxm8.com/profile_popup.php?idx=1265440&gubun=1",
    "description": "❤️천안❤️성정 두정❤️실사",
    "phone": "010-9628-6317",
    "kakao_id": "",
    "telegram_id": "",
    "hours": "PM 01:00 ~ AM 05:00",
    "thumbnail": "https://dkxm8.com/data/file/main/1332623111_7R1bTCe9_ac36fe77fb38f98c92297464024251b3ea2c5421.jpg",
    "area": "천안",
    "region": "대전/충청"
  },
  {
    "title": "[휴게텔] 초이스",
    "url": "https://dkxm8.com/profile_popup.php?idx=1362201&gubun=1",
    "description": "❤️천안❤️성정동❤️두정동❤️",
    "phone": "✅010-6636-2541✅",
    "kakao_id": "",
    "telegram_id": "",
    "hours": "PM12:00~AM05:00",
    "thumbnail": "https://dkxm8.com/data/file/main/2669311878_UfDPn1WC_2f7b94c305dc541192e47efdb0575d38b57b8d81.jpg",
    "area": "천안",
    "region": "대전/충청"
  },
  {
    "title": "[주점] 3NO박아영",
    "url": "https://dkxm8.com/profile_popup.php?idx=1348886&gubun=1",
    "description": "Ⓜ️전부 다 벗고 박아영Ⓜ️",
    "phone": "010-3435-1981",
    "kakao_id": "",
    "telegram_id": "",
    "hours": "PM:6:00~AM:10:00",
    "thumbnail": "https://dkxm8.com/data/file/main/1728182871_pxs23VtZ_198c6061a758bf5f77196bdec3579ec0f5a5e189.jpg",
    "area": "천안",
    "region": "대전/충청"
  },
  {
    "title": "[주점] 아이스크림",
    "url": "https://dkxm8.com/profile_popup.php?idx=1356825&gubun=1",
    "description": "천안시 성정동 스타나이트 부근",
    "phone": "010-6853-8283",
    "kakao_id": "",
    "telegram_id": "",
    "hours": "PM 18:00 ~ AM 11:00",
    "thumbnail": "https://dkxm8.com/data/file/main/1332623110_OJBAnSlb_8e69eff68c9a3325fe607f0f065d4eb87440677d.jpg",
    "area": "천안",
    "region": "대전/충청"
  },
  {
    "title": "[키스방] 플레이보이",
    "url": "https://dkxm8.com/profile_popup.php?idx=728352&gubun=1",
    "description": "1시간 7만 /최상급 와꾸",
    "phone": "010-5576-6016",
    "kakao_id": "",
    "telegram_id": "",
    "hours": "AM 11:00 ~ AM 04:00",
    "thumbnail": "https://dkxm8.com/data/file/main/2669311878_tbEOD7e0_e01bbd6c3dee75c581be3eb99b281be92e9a1e38.gif",
    "area": "천안",
    "region": "대전/충청"
  },
  {
    "title": "[건마] 파트너출장",
    "url": "https://dkxm8.com/profile_popup.php?idx=650336&gubun=1",
    "description": "✨하이퀄리티출장✨인증업소❣️",
    "phone": "010-9666-6087",
    "kakao_id": "",
    "telegram_id": "",
    "hours": "PM 14:00 ~ AM 7:00✨",
    "thumbnail": "https://dkxm8.com/data/file/main/1728182447_lMGVsjoL_a7709e61d483596ded00fc21281847f2268212ff.jpg",
    "area": "천안",
    "region": "대전/충청"
  },
  {
    "title": "[건마] 조개비비기",
    "url": "https://dkxm8.com/profile_popup.php?idx=1362313&gubun=1",
    "description": "천안시 불당동",
    "phone": "010-6826-7370",
    "kakao_id": "",
    "telegram_id": "",
    "hours": "24시",
    "thumbnail": "https://dkxm8.com/data/file/main/2669311878_gZpXEse6_b79d4dcffefe2a5bdf46522e7c136d401cff0c3d.jpg",
    "area": "천안",
    "region": "대전/충청"
  },
  {
    "title": "[건마] 도파민스웨디시",
    "url": "https://dkxm8.com/profile_popup.php?idx=1182358&gubun=1",
    "description": "천안시 두정동",
    "phone": "010-8378-2635",
    "kakao_id": "",
    "telegram_id": "",
    "hours": "AM 11:00 ~ AM 05:00",
    "thumbnail": "https://dkxm8.com/data/file/main/2699961699_2NAzoJ6n_19e1bb30dbb88e2470c236e20fc9c5a9b339a08b.jpg",
    "area": "천안",
    "region": "대전/충청"
  },
  {
    "title": "[오피] VIP",
    "url": "https://dkxm8.com/profile_popup.php?idx=1362691&gubun=1",
    "description": "천안",
    "phone": "010-9656-5066",
    "kakao_id": "",
    "telegram_id": "",
    "hours": "24시간",
    "thumbnail": "https://dkxm8.com/data/file/main/2669311878_LgerBudE_fba9cb36a61391d818592258fb9287ec694dcda8.jpg",
    "area": "천안",
    "region": "대전/충청"
  },
  {
    "title": "[휴게텔] 옹달샘",
    "url": "https://dkxm8.com/profile_popup.php?idx=969055&gubun=1",
    "description": "클릭⭕아로마⭕NF베네수엘라⭕️",
    "phone": "010-8341-2211",
    "kakao_id": "",
    "telegram_id": "",
    "hours": "단체⭕️청주NO.1❤️ 풀옵션⭕️",
    "thumbnail": "https://dkxm8.com/data/file/main/1728182871_8UqGeSaT_c985727b1c3f3b4e3f9d2a29158d11a64c7d1a1e.jpg",
    "area": "청주",
    "region": "대전/충청"
  },
  {
    "title": "[오피스텔] 디저트",
    "url": "https://dkxm8.com/profile_popup.php?idx=648235&gubun=1",
    "description": "❣️와꾸1등 맛잇는 디저트❣️",
    "phone": "❣️010-2651-3256❣️",
    "kakao_id": "",
    "telegram_id": "",
    "hours": "❣️디저트매니저구함❣️",
    "thumbnail": "https://dkxm8.com/data/file/main/1728182871_WQEZkeyx_980fbb1dbb16fe2798af06fd2beec77a025c86f1.gif",
    "area": "청주",
    "region": "대전/충청"
  },
  {
    "title": "[오피스텔] 스토리",
    "url": "https://dkxm8.com/profile_popup.php?idx=1012064&gubun=1",
    "description": "목✡️S+급6명✡️히트!✡️",
    "phone": "✡️010-8111-6345✡️",
    "kakao_id": "",
    "telegram_id": "",
    "hours": "✡️아침11시-아침7시✡️",
    "thumbnail": "https://dkxm8.com/data/file/main/1728182871_qGYw2MAk_66176dfba37b47831c5f67e81620178ec18f2ca5.jpg",
    "area": "청주",
    "region": "대전/충청"
  },
  {
    "title": "[룸/풀사롱] 야구장",
    "url": "https://dkxm8.com/profile_popup.php?idx=1347848&gubun=1",
    "description": "❤️ 청주사이즈 마인드1등❤️",
    "phone": "010-5382-8925",
    "kakao_id": "",
    "telegram_id": "",
    "hours": "❤️ 오픈이벤트양주1병서비스❤️",
    "thumbnail": "https://dkxm8.com/data/file/main/1728182871_cH17bwKI_0acb8e8b823cbe84bb09334b70bb9d9a2e62cf8a.jpg",
    "area": "청주",
    "region": "대전/충청"
  },
  {
    "title": "[건마] 힐스웨디시",
    "url": "https://dkxm8.com/profile_popup.php?idx=648795&gubun=1",
    "description": "❣️신입!초롱!! 예약대기❣️",
    "phone": "010-9955-8285",
    "kakao_id": "",
    "telegram_id": "",
    "hours": "AM 12:00 ~ AM 05:00",
    "thumbnail": "https://dkxm8.com/data/file/main/1728182447_xwdqJY1v_c6edf7837bc7ab7e9b1617ff06448efff64b1af9.jpg",
    "area": "청주",
    "region": "대전/충청"
  },
  {
    "title": "[오피] 누피",
    "url": "https://dkxm8.com/profile_popup.php?idx=1123766&gubun=1",
    "description": "목❤️요.즘.핫.한.6.명❤️",
    "phone": "✨010-7748-9282✨",
    "kakao_id": "",
    "telegram_id": "",
    "hours": "❤️오피는 누피!!❤️",
    "thumbnail": "https://dkxm8.com/data/file/main/2699961636_96k1mqOS_86fcd723f964e3ceadbc8db1c40929bb070e901d.jpg",
    "area": "청주",
    "region": "대전/충청"
  },
  {
    "title": "[건마] See,You",
    "url": "https://dkxm8.com/profile_popup.php?idx=424825&gubun=1",
    "description": "연휴엔❤️SEEYOU❤️",
    "phone": "010-8036-3121",
    "kakao_id": "",
    "telegram_id": "",
    "hours": "목)✨️12시부터~~마감까지✨️",
    "thumbnail": "https://dkxm8.com/data/file/main/1728182871_BWkY4QtN_65918a1ca15f37f0491dfa08e329cdbd8ecbfc6c.jpg",
    "area": "청주",
    "region": "대전/충청"
  },
  {
    "title": "[건마] 충북대스웨디시",
    "url": "https://dkxm8.com/profile_popup.php?idx=1081934&gubun=1",
    "description": "",
    "phone": "010-7617-7062",
    "kakao_id": "",
    "telegram_id": "",
    "hours": "❤️사장님들 믿고 오세요❤️",
    "thumbnail": "https://dkxm8.com/data/file/main/1728182447_OWuozb26_d0fe72f21feead43bc9cc825b3b1300e50a4d159.jpg",
    "area": "청주",
    "region": "대전/충청"
  },
  {
    "title": "[건마] 물빨너1인샵",
    "url": "https://dkxm8.com/profile_popup.php?idx=1366931&gubun=1",
    "description": "✡️신규오픈✡️강서동",
    "phone": "010-5705-8598",
    "kakao_id": "",
    "telegram_id": "",
    "hours": "✡️물고,빨고,넣고 ✡️",
    "thumbnail": "https://dkxm8.com/data/file/main/2669311878_YwD3q9Kr_858c2db869106b4e79b9f9cd01ca76e1bc9a849d.jpg",
    "area": "청주",
    "region": "대전/충청"
  },
  {
    "title": "[건마] Feel",
    "url": "https://dkxm8.com/profile_popup.php?idx=1169880&gubun=1",
    "description": "⭐️ 강서동1인샵⭐핫해 핫해",
    "phone": "010-5507-6659❤️",
    "kakao_id": "",
    "telegram_id": "",
    "hours": "✅ 매니져 항시 모집 최고대우✅",
    "thumbnail": "https://dkxm8.com/data/file/main/1728182871_jbMunHKB_b4864e2d29aa4a69ca1cc440b6d63a7218ea042a.jpg",
    "area": "청주",
    "region": "대전/충청"
  },
  {
    "title": "[건마] 제이테라피",
    "url": "https://dkxm8.com/profile_popup.php?idx=1294190&gubun=1",
    "description": "❤️청주 봉명동 힐링샵❤️",
    "phone": "❣️010-6816-1024❣️",
    "kakao_id": "",
    "telegram_id": "",
    "hours": "매니저 상시 모집중!!",
    "thumbnail": "https://dkxm8.com/data/file/main/1502831950_DVTryFCY_a63959b24d696fc3603a99177b2fb4481318f199.jpg",
    "area": "청주",
    "region": "대전/충청"
  },
  {
    "title": "[건마] 30대스웨디시",
    "url": "https://dkxm8.com/profile_popup.php?idx=1248046&gubun=1",
    "description": "❣️율량동 최강스웨디시",
    "phone": "010-8012-0094❣️",
    "kakao_id": "",
    "telegram_id": "",
    "hours": "❤️PM12:00~AM05:00❤️",
    "thumbnail": "https://dkxm8.com/data/file/main/1332623107_inaXMGY2_6a4fda7889bccc3056e6f74dff41ba363606128d.jpg",
    "area": "청주",
    "region": "대전/충청"
  },
  {
    "title": "[건마] 아이비",
    "url": "https://dkxm8.com/profile_popup.php?idx=1084178&gubun=1",
    "description": "❤️동남지구✨휴식처✨NF!!!",
    "phone": "010-3975-2880",
    "kakao_id": "",
    "telegram_id": "",
    "hours": "AM 10:00 ~ AM 05:00",
    "thumbnail": "https://dkxm8.com/data/file/main/1728182447_zEm8DvSF_dc834e5a81f13d30e63e4d797b9eca0262b87488.jpg",
    "area": "청주",
    "region": "대전/충청"
  },
  {
    "title": "[룸/풀사롱] VIP",
    "url": "https://dkxm8.com/profile_popup.php?idx=1053423&gubun=1",
    "description": "✅청주유일하드코어✅",
    "phone": "✅010-7309-0765✅",
    "kakao_id": "",
    "telegram_id": "",
    "hours": "✅싸이즈무한초이스✅",
    "thumbnail": "https://dkxm8.com/data/file/main/1728182871_ol58su1U_21ac0213b12d60fa08c573ecf2cb2663b9278c2b.jpg",
    "area": "청주",
    "region": "대전/충청"
  },
  {
    "title": "[오피] 스토리",
    "url": "https://dkxm8.com/profile_popup.php?idx=1012064&gubun=1",
    "description": "목✡️S+급6명✡️히트!✡️",
    "phone": "✡️010-8111-6345✡️",
    "kakao_id": "",
    "telegram_id": "",
    "hours": "✡️아침11시-아침7시✡️",
    "thumbnail": "https://dkxm8.com/data/file/main/1728182871_qGYw2MAk_66176dfba37b47831c5f67e81620178ec18f2ca5.jpg",
    "area": "청주",
    "region": "대전/충청"
  },
  {
    "title": "[주점] 황제노래궁",
    "url": "https://dkxm8.com/profile_popup.php?idx=1281988&gubun=1",
    "description": "❤️청주와꾸일번지❤️내상제로❤",
    "phone": "☀️010-8231-6786☀️",
    "kakao_id": "",
    "telegram_id": "",
    "hours": "❤️신뢰의 신대표❤️",
    "thumbnail": "https://dkxm8.com/data/file/main/1332623118_NARhY9jw_3ecfbb7d1087c8f1058a0bde6ddd40149f3140e9.jpg",
    "area": "청주",
    "region": "대전/충청"
  },
  {
    "title": "[오피] 명품",
    "url": "https://dkxm8.com/profile_popup.php?idx=648251&gubun=1",
    "description": "❤️S급 이쁜이들❤️",
    "phone": "❤️010-8111-6345❤️",
    "kakao_id": "",
    "telegram_id": "",
    "hours": "❤️❤️아침11시~아침8시❤️❤️",
    "thumbnail": "https://dkxm8.com/data/file/main/1728182871_onqpFU9B_fd1f16e8bb6227e121f1f7df917eff7198c6e384.jpg",
    "area": "청주",
    "region": "대전/충청"
  },
  {
    "title": "[휴게텔] 미인도",
    "url": "https://dkxm8.com/profile_popup.php?idx=1040200&gubun=1",
    "description": "청주✅NF미니✅서비스하드",
    "phone": "010-5795-3815",
    "kakao_id": "",
    "telegram_id": "",
    "hours": "☀️청주터미널 부근☀️",
    "thumbnail": "https://dkxm8.com/data/file/main/1728182871_aTCOSjPn_76684f1a02b204bc0ac4f512e6be3c77bc6da54f.jpg",
    "area": "청주",
    "region": "대전/충청"
  },
  {
    "title": "[건마] 럭키스타",
    "url": "https://dkxm8.com/profile_popup.php?idx=1233574&gubun=1",
    "description": "청주시 청원구 율량동",
    "phone": "010-5922-1576",
    "kakao_id": "",
    "telegram_id": "",
    "hours": "24시간",
    "thumbnail": "https://dkxm8.com/data/file/main/1728182871_NCeBy8Sq_b702d3f9a995f7fdf0aff5a8a11477e2bd0b5aed.jpg",
    "area": "청주",
    "region": "대전/충청"
  },
  {
    "title": "[오피] 아쿠아",
    "url": "https://dkxm8.com/profile_popup.php?idx=1084438&gubun=1",
    "description": "목욜✨오후12시부터✨❣️",
    "phone": "⭐ 010-7294-3316⭐",
    "kakao_id": "",
    "telegram_id": "",
    "hours": "오후12:00시부터~마감까지",
    "thumbnail": "https://dkxm8.com/data/file/main/1728182447_j6sB3ERW_7a619025653da3b3d32d33b8e3d2cdf576678d80.jpg",
    "area": "청주",
    "region": "대전/충청"
  },
  {
    "title": "[오피] 백마로살아남기",
    "url": "https://dkxm8.com/profile_popup.php?idx=1006303&gubun=1",
    "description": "❣️청주백마일번지 출장오피❣️",
    "phone": "❣️010-5930-3788❣️",
    "kakao_id": "",
    "telegram_id": "",
    "hours": "❣️PM:02:30~AM:5:00❣️",
    "thumbnail": "https://dkxm8.com/data/file/main/1728182871_vXPr60eE_b301dda96d19a1687c4195b026f0aa08bb14e4b4.jpg",
    "area": "청주",
    "region": "대전/충청"
  },
  {
    "title": "[건마] 새별아로마",
    "url": "https://dkxm8.com/profile_popup.php?idx=1239230&gubun=1",
    "description": "청주시 청원구 율량동",
    "phone": "010-5930-6133",
    "kakao_id": "",
    "telegram_id": "",
    "hours": "24시간 연중무휴",
    "thumbnail": "https://dkxm8.com/data/file/main/1728182447_zbl8mq5Z_1007bae7fb57ea1c41e91024f9582a049d61ff2e.jpg",
    "area": "청주",
    "region": "대전/충청"
  },
  {
    "title": "[룸/풀사롱] 비밀",
    "url": "https://dkxm8.com/profile_popup.php?idx=1123234&gubun=1",
    "description": "✨1인5만원✨2030리얼영계✨",
    "phone": "✈️010-8306-5442✈️",
    "kakao_id": "",
    "telegram_id": "",
    "hours": "❣️대박할인이벤트❣️단체환영❣️",
    "thumbnail": "https://dkxm8.com/data/file/main/1332623110_Cn2w0bJH_00fa7e46aa75d7ebda688b325530fcc850df2d90.jpg",
    "area": "청주",
    "region": "대전/충청"
  },
  {
    "title": "[건마] 언니네1인샵",
    "url": "https://dkxm8.com/profile_popup.php?idx=1187431&gubun=1",
    "description": "☀️(목)24시-정상영업☀️",
    "phone": "☀️010-5768-4571☀️",
    "kakao_id": "",
    "telegram_id": "",
    "hours": "❤️OPEN친절.봉사.하드❤️",
    "thumbnail": "https://dkxm8.com/data/file/main/1728182871_FCqiAJu8_2315967a86adfaaacd88d7579a650b0c74de5fc6.jpg",
    "area": "청주",
    "region": "대전/충청"
  },
  {
    "title": "[오피] 키티",
    "url": "https://dkxm8.com/profile_popup.php?idx=765145&gubun=1",
    "description": "[목]❣️와꾸✨대장✨키티❣️",
    "phone": "✨010-8221-6967✨",
    "kakao_id": "",
    "telegram_id": "",
    "hours": "❣️매니저❣️✨모집✨",
    "thumbnail": "https://dkxm8.com/data/file/main/1728182871_5eCvRjIO_1d72cd563b44cd3e78499e1f4ddc4448d4caed8e.jpg",
    "area": "청주",
    "region": "대전/충청"
  },
  {
    "title": "[건마] 아이씨떡방",
    "url": "https://dkxm8.com/profile_popup.php?idx=1219846&gubun=1",
    "description": "청주 봉명동",
    "phone": "010-2926-3240",
    "kakao_id": "",
    "telegram_id": "",
    "hours": "24시간",
    "thumbnail": "https://dkxm8.com/img/temp_thum.jpg",
    "area": "청주",
    "region": "대전/충청"
  },
  {
    "title": "[건마] 빨간앵두",
    "url": "https://dkxm8.com/profile_popup.php?idx=1325476&gubun=1",
    "description": "청주 복대동",
    "phone": "010-6849-6841",
    "kakao_id": "",
    "telegram_id": "",
    "hours": "24시간",
    "thumbnail": "https://dkxm8.com/data/file/main/2699961655_yvhqRDiL_9fce48d578de4d9013e75ee7c82701ce3b922b45.jpg",
    "area": "청주",
    "region": "대전/충청"
  },
  {
    "title": "[오피] 차칸가게",
    "url": "https://dkxm8.com/profile_popup.php?idx=1093322&gubun=1",
    "description": "목✅️아침 점심 저녁!!",
    "phone": "✅️010-7970-6635✅️",
    "kakao_id": "",
    "telegram_id": "",
    "hours": "✅지금도 영업중..✅",
    "thumbnail": "https://dkxm8.com/data/file/main/1728182447_Y0QSNevL_39fc8d13fe18b4a9469c7d3656fed2081fbf27b6.jpg",
    "area": "청주",
    "region": "대전/충청"
  },
  {
    "title": "[휴게텔] 마카롱",
    "url": "https://dkxm8.com/profile_popup.php?idx=1286485&gubun=1",
    "description": "♥1등/와꾸/마인드/단체♥",
    "phone": "010-8438-0048",
    "kakao_id": "",
    "telegram_id": "",
    "hours": "PM 12:00~AM 05:00",
    "thumbnail": "https://dkxm8.com/data/file/main/1502831950_dnKAbYsF_2f790241dccf84ea4701ff5e45a41d8268bc10d1.jpg",
    "area": "청주",
    "region": "대전/충청"
  },
  {
    "title": "[건마] 맥심",
    "url": "https://dkxm8.com/profile_popup.php?idx=1166076&gubun=1",
    "description": "❤️전원 청주 찐찐 뉴페",
    "phone": "010-5594-1084",
    "kakao_id": "",
    "telegram_id": "",
    "hours": "❤️만원할인11am-5am❤️",
    "thumbnail": "https://dkxm8.com/data/file/main/2669311878_klmaPrUV_0ae37275c7e43f747aea30b4a3dead54d95dca96.jpg",
    "area": "청주",
    "region": "대전/충청"
  },
  {
    "title": "[건마] 낭만",
    "url": "https://dkxm8.com/profile_popup.php?idx=1346781&gubun=1",
    "description": "청주 흥덕구",
    "phone": "010-5961-1254",
    "kakao_id": "",
    "telegram_id": "",
    "hours": "24시간",
    "thumbnail": "https://dkxm8.com/data/file/main/2699961699_TmRWl7cy_dd67fc66e765eee9574416cedb3a8a55a1107e4d.jpg",
    "area": "청주",
    "region": "대전/충청"
  },
  {
    "title": "[휴게텔] 요정집",
    "url": "https://dkxm8.com/profile_popup.php?idx=1286487&gubun=1",
    "description": "❤️청주 고속버스터미널❤️",
    "phone": "010-5816-9499",
    "kakao_id": "",
    "telegram_id": "",
    "hours": "PM 12:00 ~ AM 05:00",
    "thumbnail": "https://dkxm8.com/data/file/main/1502831950_aOVRWlDH_0c30ece0ee37c8eedba3ce9df8cc9cdc0e76a78d.jpg",
    "area": "청주",
    "region": "대전/충청"
  },
  {
    "title": "[건마] 디올스웨디시",
    "url": "https://dkxm8.com/profile_popup.php?idx=1317936&gubun=1",
    "description": "❤️올인원 혀웨폭격여신❤️",
    "phone": "010-4898-6779",
    "kakao_id": "",
    "telegram_id": "",
    "hours": "AM10:00 ~ AM 06:00",
    "thumbnail": "https://dkxm8.com/data/file/main/1502832118_Nt2Wfs5m_0c59dcfa0b8fe239ce904ddeea2af0b693d65774.jpg",
    "area": "청주",
    "region": "대전/충청"
  },
  {
    "title": "[건마] 뀨 1인샵",
    "url": "https://dkxm8.com/profile_popup.php?idx=1036746&gubun=1",
    "description": "NF다나.지영 ✡️단체가능✡️",
    "phone": "☑️ 010-9640-7222☑️",
    "kakao_id": "",
    "telegram_id": "",
    "hours": "와꾸.몸매.1등내상제로!!",
    "thumbnail": "https://dkxm8.com/data/file/main/1728182871_Rdwel39c_e3043a2996d001eb773891f4fd424b4e690f9591.jpg",
    "area": "청주",
    "region": "대전/충청"
  },
  {
    "title": "[오피] 사쿠라",
    "url": "https://dkxm8.com/profile_popup.php?idx=1354024&gubun=1",
    "description": "청주시",
    "phone": "010-2660-7465",
    "kakao_id": "",
    "telegram_id": "",
    "hours": "오후12시~오전5시",
    "thumbnail": "https://dkxm8.com/data/file/main/2669311878_sE4A5gQk_e2677b5855fb70f7d17150b1901a8eb26d10d982.jpg",
    "area": "청주",
    "region": "대전/충청"
  },
  {
    "title": "[건마] 러블리스웨디시",
    "url": "https://dkxm8.com/profile_popup.php?idx=1281923&gubun=1",
    "description": "청주 1등 업소 단체가능 !!",
    "phone": "010-4649-7062",
    "kakao_id": "",
    "telegram_id": "",
    "hours": "손님계실때까지 영업중",
    "thumbnail": "https://dkxm8.com/data/file/main/1332623118_w2ZtX4F0_f143e9a21e24bd9613f427038e0aaf8298df018b.jpg",
    "area": "청주",
    "region": "대전/충청"
  },
  {
    "title": "[휴게텔] 스프링",
    "url": "https://dkxm8.com/profile_popup.php?idx=968017&gubun=1",
    "description": "❤️예진, 닐리 ❤️율량동",
    "phone": "010-6737-3021",
    "kakao_id": "",
    "telegram_id": "",
    "hours": "❤️힐링하러 오세요❤️",
    "thumbnail": "https://dkxm8.com/data/file/main/2699961636_ZaO23IHP_e6e83990385272394df0c660c84e95c1734f472f.jpg",
    "area": "청주",
    "region": "대전/충청"
  },
  {
    "title": "[휴게텔] 바카디",
    "url": "https://dkxm8.com/profile_popup.php?idx=648492&gubun=1",
    "description": "✨모나,제니,미나✨강서동",
    "phone": "❤️010-7315-5810❤️",
    "kakao_id": "",
    "telegram_id": "",
    "hours": "❤️13:00-05:00❤️",
    "thumbnail": "https://dkxm8.com/data/file/main/2699961636_LeljC3hd_f2d322591dbc2acfa67bcb0ea091ca24c408b18b.jpg",
    "area": "청주",
    "region": "대전/충청"
  },
  {
    "title": "[오피] 청주여대",
    "url": "https://dkxm8.com/profile_popup.php?idx=1234220&gubun=1",
    "description": "【금】⏩핫플여대 ACE 4명⏪",
    "phone": "✌️010-5901-2084✌️",
    "kakao_id": "",
    "telegram_id": "",
    "hours": "【금】❤️NF세빈출근+8/하윤복귀❤️",
    "thumbnail": "https://dkxm8.com/data/file/main/1502831950_FRN5dtVg_d3d768dfa8df3430358adf8bb7a53f33a92c69b3.jpg",
    "area": "청주",
    "region": "대전/충청"
  },
  {
    "title": "[오피] 청주파트너",
    "url": "https://dkxm8.com/profile_popup.php?idx=1269862&gubun=1",
    "description": "청주출장가능방문가능",
    "phone": "010-5814-5427",
    "kakao_id": "",
    "telegram_id": "",
    "hours": "오후4:00~오전6:00",
    "thumbnail": "https://dkxm8.com/data/file/main/1332623107_8y4ifTzg_17171d48792afc27e807b6709319abd27434198e.jpg",
    "area": "청주",
    "region": "대전/충청"
  },
  {
    "title": "[오피] 큐피트",
    "url": "https://dkxm8.com/profile_popup.php?idx=1011732&gubun=1",
    "description": "목❤️큐피트 6명달렷!❤️",
    "phone": "⏩010-8471-0039⏪",
    "kakao_id": "",
    "telegram_id": "",
    "hours": "⏩큐피트 매니저 모집⏪",
    "thumbnail": "https://dkxm8.com/data/file/main/1728182871_ZVJ2Icen_7c25ce65520054b39f6331436e4199f7b768dfb5.jpg",
    "area": "청주",
    "region": "대전/충청"
  },
  {
    "title": "[건마] 뮤",
    "url": "https://dkxm8.com/profile_popup.php?idx=1085854&gubun=1",
    "description": "⭐10월부터 리뉴얼 뉴멤버",
    "phone": "⭐010-2511-5892⭐",
    "kakao_id": "",
    "telegram_id": "",
    "hours": "⭐존예들 20대 강서동 터미널앞⭐|",
    "thumbnail": "https://dkxm8.com/data/file/main/1728182871_ba7Bum2y_33ee8575a512fc0d2ca83e14b19de1e33103ede0.jpg",
    "area": "청주",
    "region": "대전/충청"
  },
  {
    "title": "[오피] 미슐랭",
    "url": "https://dkxm8.com/profile_popup.php?idx=648319&gubun=1",
    "description": "⤴️청주 맛집 1등 맛슐랭⤴️",
    "phone": "⭐010-8357-2334⭐",
    "kakao_id": "",
    "telegram_id": "",
    "hours": "✅매니져 상시 모집✅",
    "thumbnail": "https://dkxm8.com/data/file/main/1728182871_TNtzeRD6_43f30cee06bc4f07fbab2fc62f352c15bf38699c.jpg",
    "area": "청주",
    "region": "대전/충청"
  },
  {
    "title": "[주점] 전통기생집",
    "url": "https://dkxm8.com/profile_popup.php?idx=1329208&gubun=1",
    "description": "⭐️최고수질⭐️하드코어⭐️",
    "phone": "010-5267-8046",
    "kakao_id": "",
    "telegram_id": "",
    "hours": "❤️최고서비스❤️1인16만❤️",
    "thumbnail": "https://dkxm8.com/data/file/main/2699961655_GsWgxnfk_8fd2f760fc8db3e9770ad18e626cd613394bc710.jpg",
    "area": "청주",
    "region": "대전/충청"
  },
  {
    "title": "[휴게텔] 소녀",
    "url": "https://dkxm8.com/profile_popup.php?idx=1338252&gubun=1",
    "description": "청주 고속터미널 부근",
    "phone": "010-2452-8457",
    "kakao_id": "",
    "telegram_id": "",
    "hours": "PM13:00 ~ AM04:00",
    "thumbnail": "https://dkxm8.com/data/file/main/2699961699_bMYvnL7w_e56dfe6e4608dc2e3633367b83dcb63a1abe2a96.jpg",
    "area": "청주",
    "region": "대전/충청"
  },
  {
    "title": "[휴게텔] 싸요싸요",
    "url": "https://dkxm8.com/profile_popup.php?idx=1080389&gubun=1",
    "description": "청주❤️NF나나,로즈❤️출근!",
    "phone": "010-9671-3375",
    "kakao_id": "",
    "telegram_id": "",
    "hours": "✅️신규오픈✅️청주터미널✅️",
    "thumbnail": "https://dkxm8.com/data/file/main/1728182447_zQyixfM2_8cbd6a5f58df16c1f19c24fe287814ef6fd9b45e.jpg",
    "area": "청주",
    "region": "대전/충청"
  },
  {
    "title": "[건마] 마보이",
    "url": "https://dkxm8.com/profile_popup.php?idx=1086339&gubun=1",
    "description": "청주시 서원구 산남동",
    "phone": "010-6570-9780",
    "kakao_id": "",
    "telegram_id": "",
    "hours": "24시간 영업",
    "thumbnail": "https://dkxm8.com/data/file/main/1728182871_qm9R6fUj_63fe5834af16896889d0c3c7920323aeb5051eef.jpg",
    "area": "청주",
    "region": "대전/충청"
  },
  {
    "title": "[건마] 버블아로마",
    "url": "https://dkxm8.com/profile_popup.php?idx=1242236&gubun=1",
    "description": "청주 용담동 광장근처",
    "phone": "010-8879-8929",
    "kakao_id": "",
    "telegram_id": "",
    "hours": "PM 12:00 ~ AM 04:00",
    "thumbnail": "https://dkxm8.com/data/file/main/1728182871_8TnNJihw_c77a379af2cbfd0d1be0966565ce55f7b38231cb.jpg",
    "area": "청주",
    "region": "대전/충청"
  },
  {
    "title": "[휴게텔] 옹달샘",
    "url": "https://dkxm8.com/profile_popup.php?idx=969055&gubun=1",
    "description": "클릭⭕아로마⭕NF베네수엘라⭕️",
    "phone": "010-8341-2211",
    "kakao_id": "",
    "telegram_id": "",
    "hours": "단체⭕️청주NO.1❤️ 풀옵션⭕️",
    "thumbnail": "https://dkxm8.com/data/file/main/1728182871_8UqGeSaT_c985727b1c3f3b4e3f9d2a29158d11a64c7d1a1e.jpg",
    "area": "청주",
    "region": "대전/충청"
  },
  {
    "title": "[건마] 청포도",
    "url": "https://dkxm8.com/profile_popup.php?idx=1131431&gubun=1",
    "description": "청주 하복대 터미널",
    "phone": "010-2268-0666",
    "kakao_id": "",
    "telegram_id": "",
    "hours": "PM 24:00 ~ AM 24:00",
    "thumbnail": "https://dkxm8.com/data/file/main/1728182871_6cmkWU5B_809ad4aca80e6021518ccdc22b5d981cbcabdafd.jpg",
    "area": "청주",
    "region": "대전/충청"
  },
  {
    "title": "[안마] 잔나비",
    "url": "https://dkxm8.com/profile_popup.php?idx=1270592&gubun=1",
    "description": "청주 고속버스터미널(전원한국)",
    "phone": "010-6898-8205",
    "kakao_id": "",
    "telegram_id": "",
    "hours": "오후1시~세벽3시",
    "thumbnail": "https://dkxm8.com/data/file/main/1332623107_9g6BYhM5_895f796882dc15b53d95eb5ee13f5694cb0ae3ab.jpg",
    "area": "청주",
    "region": "대전/충청"
  },
  {
    "title": "[휴게텔] 초콜릿",
    "url": "https://dkxm8.com/profile_popup.php?idx=986640&gubun=1",
    "description": "청주1등♥뉴페 지혜♥",
    "phone": "010-2336-2625",
    "kakao_id": "",
    "telegram_id": "",
    "hours": "Pm.12:00~Am.05:00",
    "thumbnail": "https://dkxm8.com/data/file/main/1728182447_ktoZi12P_eb44a1235b72c830177a0c85a46e8b2440f23f19.jpg",
    "area": "청주",
    "region": "대전/충청"
  },
  {
    "title": "[건마] MSG1인샵",
    "url": "https://dkxm8.com/profile_popup.php?idx=766135&gubun=1",
    "description": "✨청주일번지!✨하드✨강서터미널",
    "phone": "⎝⎝✨ 010-3297-6111✨⎠⎠",
    "kakao_id": "",
    "telegram_id": "",
    "hours": "➿매니져 상시 모집!!➿",
    "thumbnail": "https://dkxm8.com/data/file/main/1728182871_vL9UgCQZ_30cb6da5dd65b96449257631fea32901a25c496a.jpg",
    "area": "청주",
    "region": "대전/충청"
  },
  {
    "title": "[휴게텔] 스캔들",
    "url": "https://dkxm8.com/profile_popup.php?idx=1234052&gubun=1",
    "description": "청주 고객만족도1위 스캔들❣️",
    "phone": "010-5893-7057",
    "kakao_id": "",
    "telegram_id": "",
    "hours": "PM12:00 ~ AM05:00",
    "thumbnail": "https://dkxm8.com/data/file/main/1728182447_g2mZoCrh_36dca912aaf9aa57bb4dfa77f8613d8390780714.jpg",
    "area": "청주",
    "region": "대전/충청"
  },
  {
    "title": "[건마] 존예스웨디시",
    "url": "https://dkxm8.com/profile_popup.php?idx=648509&gubun=1",
    "description": "주간운영❤️단체환영",
    "phone": "010-7206-1258",
    "kakao_id": "",
    "telegram_id": "",
    "hours": "만족하는이곳!!!",
    "thumbnail": "https://dkxm8.com/data/file/main/1728182871_Agz037rN_ae2a62fa17504f21650bf827bd0522d97a5a41e1.jpg",
    "area": "청주",
    "region": "대전/충청"
  },
  {
    "title": "[건마] 나혼자만1인샾",
    "url": "https://dkxm8.com/profile_popup.php?idx=1204919&gubun=1",
    "description": "❤️현에이스급매니저출!!❤️",
    "phone": "▶0507-0180-3575◀",
    "kakao_id": "",
    "telegram_id": "",
    "hours": "❤️[수]11:00~04:00❤️",
    "thumbnail": "https://dkxm8.com/data/file/main/1332623114_LSGeDyKM_2d489e5d7620315a21134122ba699546b7b02759.jpg",
    "area": "청주",
    "region": "대전/충청"
  },
  {
    "title": "[오피] 블링블링",
    "url": "https://dkxm8.com/profile_popup.php?idx=182896&gubun=1",
    "description": "⛔➿ 목요일예약중~~➿⛔",
    "phone": "✅ 010-6453-2299 ✅",
    "kakao_id": "",
    "telegram_id": "",
    "hours": "AM10:00~AM04:00",
    "thumbnail": "https://dkxm8.com/data/file/main/1728182871_ktFOn6iW_8c562909cd92c070cbe78106387e8760e65f20f0.jpg",
    "area": "청주",
    "region": "대전/충청"
  },
  {
    "title": "[건마] S스웨디시",
    "url": "https://dkxm8.com/profile_popup.php?idx=915951&gubun=1",
    "description": "❣️봉명❣️(목)지호다솜제시",
    "phone": "050-6903-4446",
    "kakao_id": "",
    "telegram_id": "",
    "hours": "❤️오전11시~새벽4시❤️",
    "thumbnail": "https://dkxm8.com/data/file/main/1728182871_z0qd5V1W_1bc539762930cf8c14fedd9d4be190a87b2095de.jpg",
    "area": "청주",
    "region": "대전/충청"
  },
  {
    "title": "[립카페] 똥광",
    "url": "https://dkxm8.com/profile_popup.php?idx=648478&gubun=1",
    "description": "목●매화+청단+초롱이+쪽",
    "phone": "010-4683-3399",
    "kakao_id": "",
    "telegram_id": "",
    "hours": "똥까시+시오후끼+전립선",
    "thumbnail": "https://dkxm8.com/data/file/main/1728182871_a40njfbA_4a6b2d67e88e03a6f8cf3121418e9989c0e5dee3.gif",
    "area": "청주",
    "region": "대전/충청"
  },
  {
    "title": "[건마] 미시클럽",
    "url": "https://dkxm8.com/profile_popup.php?idx=648358&gubun=1",
    "description": "목♡잼잼누나 출근 확인!!",
    "phone": "010 3972 2112",
    "kakao_id": "",
    "telegram_id": "",
    "hours": "늦게까지!! 꼭지+잼잼+동글이",
    "thumbnail": "https://dkxm8.com/data/file/main/1728182871_QuJpmgvw_08a6565a3b90de0b5d4530db210d63093fb05846.jpg",
    "area": "청주",
    "region": "대전/충청"
  },
  {
    "title": "[건마] 생크림",
    "url": "https://dkxm8.com/profile_popup.php?idx=648487&gubun=1",
    "description": "금☀️한국20대 이쁨❤️☀️",
    "phone": "☀️010-7361-0353❣️☀️",
    "kakao_id": "",
    "telegram_id": "",
    "hours": "☀️한국 20대 연애녀들☀️",
    "thumbnail": "https://dkxm8.com/data/file/main/1728182871_bgvpeHr5_ab46e0636155e6a1ea59fe099a9e5ee45418caf0.jpg",
    "area": "청주",
    "region": "대전/충청"
  },
  {
    "title": "[립카페] 데이트",
    "url": "https://dkxm8.com/profile_popup.php?idx=698516&gubun=1",
    "description": "금✡️주간 지리는20대❤️✡️",
    "phone": "✡️010.4869.7576✡️",
    "kakao_id": "",
    "telegram_id": "",
    "hours": "✡️1인1실OP형 립까페!!✡️",
    "thumbnail": "https://dkxm8.com/data/file/main/1728182871_ZdpTUuhr_055396423a7559b76dc4112e73d867aa473d3941.jpg",
    "area": "청주",
    "region": "대전/충청"
  },
  {
    "title": "[오피] 스페이스",
    "url": "https://dkxm8.com/profile_popup.php?idx=887566&gubun=1",
    "description": "목❣️우주네 NF3명미쳐따❣️",
    "phone": "❣️010-7799-5516❣️",
    "kakao_id": "",
    "telegram_id": "",
    "hours": "❣️우주네매니저구함❣️",
    "thumbnail": "https://dkxm8.com/data/file/main/1332623114_ofJidyVF_58f7ad973784d409141210b0bb5105d158eba95f.jpg",
    "area": "청주",
    "region": "대전/충청"
  },
  {
    "title": "[휴게텔] 핑두",
    "url": "https://dkxm8.com/profile_popup.php?idx=1255208&gubun=1",
    "description": "❤️1등/와꾸/마인드/단체❤️",
    "phone": "010-4356-2876",
    "kakao_id": "",
    "telegram_id": "",
    "hours": "풀옵션/내상제로/할인",
    "thumbnail": "https://dkxm8.com/data/file/main/1728182447_HFjdk9oX_ba52abff1582dffabb7d461f4d6ba173bbafc947.jpg",
    "area": "청주",
    "region": "대전/충청"
  },
  {
    "title": "[건마] 황제",
    "url": "https://dkxm8.com/profile_popup.php?idx=1155915&gubun=1",
    "description": "❤️NF유라❤️고속버스터미널",
    "phone": "✅ 010-7658-7556 ✅",
    "kakao_id": "",
    "telegram_id": "",
    "hours": "PM 14:00 ~ AM 03:00",
    "thumbnail": "https://dkxm8.com/data/file/main/1728182871_w9VrWEGh_2ad6efb24f5f9d801dde3a9ad97cf78a8acb9913.jpg",
    "area": "청주",
    "region": "대전/충청"
  },
  {
    "title": "[건마] 홀인원",
    "url": "https://dkxm8.com/profile_popup.php?idx=915234&gubun=1",
    "description": "청주시 상당구 용암동",
    "phone": "010-2375-6622",
    "kakao_id": "",
    "telegram_id": "",
    "hours": "PM 24:00 ~ AM 24:00",
    "thumbnail": "https://dkxm8.com/data/file/main/1728182447_oOm0ysfL_912165ced4566b05c4812c3c89f11f80875aed2c.jpg",
    "area": "청주",
    "region": "대전/충청"
  },
  {
    "title": "[휴게텔] 맛이차이나",
    "url": "https://dkxm8.com/profile_popup.php?idx=1147157&gubun=1",
    "description": "청주시 상당구 용암동",
    "phone": "010-2375-6622",
    "kakao_id": "",
    "telegram_id": "",
    "hours": "24시간",
    "thumbnail": "https://dkxm8.com/data/file/main/1728182871_25I1yrJn_9217282c419b31c0ad9725c072d974312bba2334.jpg",
    "area": "청주",
    "region": "대전/충청"
  },
  {
    "title": "[건마] 쿵떡쿵떡",
    "url": "https://dkxm8.com/profile_popup.php?idx=1206440&gubun=1",
    "description": "청주시 청원구 율량동",
    "phone": "010-8180-0304",
    "kakao_id": "",
    "telegram_id": "",
    "hours": "24시간연중무휴",
    "thumbnail": "https://dkxm8.com/data/file/main/1502831902_xMe2AKrC_48459b504996ac9fa4783002f7676540885b0fdb.jpg",
    "area": "청주",
    "region": "대전/충청"
  },
  {
    "title": "[건마] 앙큼한스웨디시",
    "url": "https://dkxm8.com/profile_popup.php?idx=1119461&gubun=1",
    "description": "강서✨뉴페 신지쌤 나연쌤 ✨",
    "phone": "0507-416-2810",
    "kakao_id": "",
    "telegram_id": "",
    "hours": "밤 4시까지❤️매일",
    "thumbnail": "https://dkxm8.com/data/file/main/1728182871_dkmGgQ2z_8db7aa3c97be464c5b1e36ef83b2264311abc12b.jpg",
    "area": "청주",
    "region": "대전/충청"
  },
  {
    "title": "[건마] SK테라피",
    "url": "https://dkxm8.com/profile_popup.php?idx=967783&gubun=1",
    "description": "❤️청주봉명동!!와꾸,수위최고",
    "phone": "0505-099-1983",
    "kakao_id": "",
    "telegram_id": "",
    "hours": "❤️한국 12만원코스❤️",
    "thumbnail": "https://dkxm8.com/data/file/main/1728182871_5qhy27n6_ed82ec62acebeecc53d7ac49184ccb94f9fdc872.jpg",
    "area": "청주",
    "region": "대전/충청"
  },
  {
    "title": "[립카페] 아이스크림",
    "url": "https://dkxm8.com/profile_popup.php?idx=648516&gubun=1",
    "description": "⛔ 청주고속버스터널 부근⛔",
    "phone": "⭐ 010-4695-2836⭐",
    "kakao_id": "",
    "telegram_id": "",
    "hours": "[목] AM10:00~START",
    "thumbnail": "https://dkxm8.com/data/file/main/1728182871_QdmsRSlf_48b6cf084152470602432a43a00a35c000ac668f.jpg",
    "area": "청주",
    "region": "대전/충청"
  },
  {
    "title": "[오피] 냠냠",
    "url": "https://dkxm8.com/profile_popup.php?idx=648506&gubun=1",
    "description": "금✴️맛있게 무르익은❤️✴️",
    "phone": "✴️010-6465-0663❤️✴️",
    "kakao_id": "",
    "telegram_id": "",
    "hours": "✴️평균나이23살영계❤️✴️",
    "thumbnail": "https://dkxm8.com/data/file/main/1728182871_nyM4FDO0_88c7d7a98afd0a1dd9bbafed2c1d0cfe39a81d52.gif",
    "area": "청주",
    "region": "대전/충청"
  },
  {
    "title": "[휴게텔] 낼름낼름",
    "url": "https://dkxm8.com/profile_popup.php?idx=995987&gubun=1",
    "description": "청주 유일♥베트남휴게텔♥",
    "phone": "010-2274-1915",
    "kakao_id": "",
    "telegram_id": "",
    "hours": "PM 12:00 ~ AM 05:00",
    "thumbnail": "https://dkxm8.com/data/file/main/1728182871_KPaXTVUW_8f3b42115ce235cd16caaa56e3f22515d0dc15fd.jpg",
    "area": "청주",
    "region": "대전/충청"
  },
  {
    "title": "[건마] 밤떡",
    "url": "https://dkxm8.com/profile_popup.php?idx=657785&gubun=1",
    "description": "❤️목)AV한편찍으러오세용♡♡",
    "phone": "⭐ 010-6529-3889 ⭐",
    "kakao_id": "",
    "telegram_id": "",
    "hours": "전원한국!연애전문업소!",
    "thumbnail": "https://dkxm8.com/data/file/main/1728182871_bIvapoxM_a4db575cea77985024de182d0c5c9db873a11bb9.jpg",
    "area": "청주",
    "region": "대전/충청"
  },
  {
    "title": "[건마] M1인샵",
    "url": "https://dkxm8.com/profile_popup.php?idx=1365126&gubun=1",
    "description": "청주 터미널근처",
    "phone": "010 8094 5585",
    "kakao_id": "",
    "telegram_id": "",
    "hours": "24시간",
    "thumbnail": "https://dkxm8.com/data/file/main/2669311878_vyJzXrF9_ab443af259a41d44c6a206018fa8cfb91a875b93.jpg",
    "area": "청주",
    "region": "대전/충청"
  },
  {
    "title": "[오피] 동탄미씨",
    "url": "https://dkxm8.com/profile_popup.php?idx=1360376&gubun=1",
    "description": "❄️신규업소 천상계 퀄리티❄️",
    "phone": "❣️010-5843-7722❣️",
    "kakao_id": "",
    "telegram_id": "",
    "hours": "❣️PM13~PM22시❣️",
    "thumbnail": "https://dkxm8.com/data/file/main/2669311878_UBG0EtSY_a6f302ac2793d201a4d59de6afc6a901bfe5f322.jpg",
    "area": "청주",
    "region": "대전/충청"
  },
  {
    "title": "[건마] 미끄럼틀1인샵",
    "url": "https://dkxm8.com/profile_popup.php?idx=649517&gubun=1",
    "description": "♻️청주고속버스터미널 부근",
    "phone": "⚡ 010-8241-5553 ⚡",
    "kakao_id": "",
    "telegram_id": "",
    "hours": "⭐[목] 매니저 상시 모집중⭐",
    "thumbnail": "https://dkxm8.com/data/file/main/1502831880_m267XZ3K_c71ed86f79850bb07175fd669f60ab5d71a2d390.jpg",
    "area": "청주",
    "region": "대전/충청"
  },
  {
    "title": "[휴게텔] 명품",
    "url": "https://dkxm8.com/profile_popup.php?idx=260439&gubun=1",
    "description": "용암동 용암광장 ❤넘버원❤",
    "phone": "010-5861-9322",
    "kakao_id": "",
    "telegram_id": "",
    "hours": "24시간",
    "thumbnail": "https://dkxm8.com/data/file/main/1728182447_dyCcXgxr_b9712a4721b1aa37a263ee4a3543596695b0d3b9.jpg",
    "area": "청주",
    "region": "대전/충청"
  },
  {
    "title": "[건마] 치어리더1인샵",
    "url": "https://dkxm8.com/profile_popup.php?idx=1338704&gubun=1",
    "description": "❤️강서동❤️20대❤️최강멤버",
    "phone": "✅010-6873-8894✅",
    "kakao_id": "",
    "telegram_id": "",
    "hours": "❣️오늘의이쁜이들과함께❣️",
    "thumbnail": "https://dkxm8.com/data/file/main/1332623111_QGrBXiYV_42d213b44bbd228e097bf3c5b6ca07dfd72b89a9.jpg",
    "area": "청주",
    "region": "대전/충청"
  },
  {
    "title": "[건마] 지웰휴",
    "url": "https://dkxm8.com/profile_popup.php?idx=991605&gubun=1",
    "description": "청주 흥덕구 지웰시티",
    "phone": "010-8969-4956",
    "kakao_id": "",
    "telegram_id": "",
    "hours": "24시간(변동있음)",
    "thumbnail": "https://dkxm8.com/data/file/main/1728182871_aOUCTI21_9682d525dc77fceed513b172fcec9fda256b016b.jpg",
    "area": "청주",
    "region": "대전/충청"
  },
  {
    "title": "[건마] 럭키7",
    "url": "https://dkxm8.com/profile_popup.php?idx=1032950&gubun=1",
    "description": "❤️극하드 8만원",
    "phone": "010-6498-2072",
    "kakao_id": "",
    "telegram_id": "",
    "hours": "24시간",
    "thumbnail": "https://dkxm8.com/data/file/main/1728182871_DBKvZn8q_24161575f69f210e2d810a0d2a0c18716804766f.jpg",
    "area": "청주",
    "region": "대전/충청"
  },
  {
    "title": "[키스방] 소희키스1인샵",
    "url": "https://dkxm8.com/profile_popup.php?idx=1327486&gubun=1",
    "description": "청주 고속버스터미널 부근",
    "phone": "목요일영업 010-4864-4703",
    "kakao_id": "",
    "telegram_id": "",
    "hours": "PM 01:00 ~ AM 01:00",
    "thumbnail": "https://dkxm8.com/data/file/main/2699961655_Y5ZCxgnE_976f123e3948557e252e044c1242ac2f53cfbcba.jpg",
    "area": "청주",
    "region": "대전/충청"
  },
  {
    "title": "[건마] 디럭스1인샵",
    "url": "https://dkxm8.com/profile_popup.php?idx=649138&gubun=1",
    "description": "고.터♡NF지원♡유리♥왁싱♥",
    "phone": "010-8497-6239",
    "kakao_id": "",
    "telegram_id": "",
    "hours": "PM 12:00 ~ AM 04:00",
    "thumbnail": "https://dkxm8.com/data/file/main/1728182871_Fv3bI2ps_eae911f6a460435548ed16f2e8407aa48971e256.jpg",
    "area": "청주",
    "region": "대전/충청"
  },
  {
    "title": "[건마] 아방궁",
    "url": "https://dkxm8.com/profile_popup.php?idx=1117051&gubun=1",
    "description": "청주 흥덕구 봉명동 69보빨!",
    "phone": "010-5844-7998",
    "kakao_id": "",
    "telegram_id": "",
    "hours": "24시간",
    "thumbnail": "https://dkxm8.com/data/file/main/1728182447_f7jJy26B_b5a6146a524b9d8e1e887e0a8399ee2126e553c0.jpg",
    "area": "청주",
    "region": "대전/충청"
  },
  {
    "title": "[오피] 디저트",
    "url": "https://dkxm8.com/profile_popup.php?idx=648235&gubun=1",
    "description": "❣️와꾸1등 맛잇는 디저트❣️",
    "phone": "❣️010-2651-3256❣️",
    "kakao_id": "",
    "telegram_id": "",
    "hours": "❣️디저트매니저구함❣️",
    "thumbnail": "https://dkxm8.com/data/file/main/1728182871_WQEZkeyx_980fbb1dbb16fe2798af06fd2beec77a025c86f1.gif",
    "area": "청주",
    "region": "대전/충청"
  },
  {
    "title": "[휴게텔] 휴",
    "url": "https://dkxm8.com/profile_popup.php?idx=1056085&gubun=1",
    "description": "청주 용암동 동남지구",
    "phone": "010-8490-5913",
    "kakao_id": "",
    "telegram_id": "",
    "hours": "24시간 연중무휴",
    "thumbnail": "https://dkxm8.com/data/file/main/1728182871_XeubHwhJ_c6a56f75959bb760aab8eb2dbca8f15271b2e760.jpg",
    "area": "청주",
    "region": "대전/충청"
  },
  {
    "title": "[건마] 에이스",
    "url": "https://dkxm8.com/profile_popup.php?idx=931522&gubun=1",
    "description": "청주시 상당구 용암동",
    "phone": "010-8144-8818",
    "kakao_id": "",
    "telegram_id": "",
    "hours": "24시간상시 오픈중",
    "thumbnail": "https://dkxm8.com/data/file/main/1332623118_WxtVeTcs_811737b631e8812712686a3249cd236b9fcae141.jpg",
    "area": "청주",
    "region": "대전/충청"
  },
  {
    "title": "[건마] 한소율1인샵",
    "url": "https://dkxm8.com/profile_popup.php?idx=1349315&gubun=1",
    "description": "와꾸.몸매.탑티어1.옵션가능",
    "phone": "010-2116-6984",
    "kakao_id": "",
    "telegram_id": "",
    "hours": "오후3시~11시까지",
    "thumbnail": "https://dkxm8.com/data/file/main/1728182871_thOw3v8n_8a4c17510646e6bfa7894c658c7073558df9b110.jpg",
    "area": "청주",
    "region": "대전/충청"
  },
  {
    "title": "[건마] 분홍치마",
    "url": "https://dkxm8.com/profile_popup.php?idx=1193167&gubun=1",
    "description": "청주시 율량동",
    "phone": "010-8320-6721",
    "kakao_id": "",
    "telegram_id": "",
    "hours": "24시간 연중무휴",
    "thumbnail": "https://dkxm8.com/data/file/main/1728182871_iZoALFHs_8891c1a7e2884c41db28bf395099a3483991ff1f.jpg",
    "area": "청주",
    "region": "대전/충청"
  },
  {
    "title": "[주점] 박카스노래궁",
    "url": "https://dkxm8.com/profile_popup.php?idx=1328211&gubun=1",
    "description": "청주시 흥덕구 복대동",
    "phone": "010 5833 2278",
    "kakao_id": "",
    "telegram_id": "",
    "hours": "19 : 00 ~ 05 : 00",
    "thumbnail": "https://dkxm8.com/data/file/main/2699961655_XPI4orVB_ed4dc54c935d19d27f55426b9291042b81640d6d.jpg",
    "area": "청주",
    "region": "대전/충청"
  },
  {
    "title": "[오피] 코카인",
    "url": "https://dkxm8.com/profile_popup.php?idx=1230674&gubun=1",
    "description": "❤️코 카 인❤️",
    "phone": "✅010-7684-6116✅",
    "kakao_id": "",
    "telegram_id": "",
    "hours": "⚡청주 코카인 핫플!!⚡",
    "thumbnail": "https://dkxm8.com/data/file/main/1728182447_WPnhJjuf_fe395ea90cdb5959b92a22ffcb33b4a130a07ce0.jpg",
    "area": "청주",
    "region": "대전/충청"
  },
  {
    "title": "[건마] 구찌",
    "url": "https://dkxm8.com/profile_popup.php?idx=&gubun=1",
    "description": "청주시 용암동",
    "phone": "010-4689-8709",
    "kakao_id": "",
    "telegram_id": "",
    "hours": "오전 10시 ~ 새벽 6시까지",
    "thumbnail": "https://dkxm8.com/img/temp_thum.jpg",
    "area": "청주",
    "region": "대전/충청"
  },
  {
    "title": "[건마] 센슈얼스웨디시",
    "url": "https://dkxm8.com/profile_popup.php?idx=679836&gubun=1",
    "description": "강서동SS NF 와떠용❤️",
    "phone": "01057299970",
    "kakao_id": "",
    "telegram_id": "",
    "hours": "♥️PM 10:00~AM 04:00♥",
    "thumbnail": "https://dkxm8.com/data/file/main/1728182871_uaA69wEl_c17976a8a9924591a3397857847b021baefd5412.jpg",
    "area": "청주",
    "region": "대전/충청"
  },
  {
    "title": "[휴게텔] 놀러와",
    "url": "https://dkxm8.com/profile_popup.php?idx=1348894&gubun=1",
    "description": "❤️청주 강서동❤️✨태국✨",
    "phone": "010-0000-0000",
    "kakao_id": "",
    "telegram_id": "",
    "hours": "PM12:00~AM05:00",
    "thumbnail": "https://dkxm8.com/data/file/main/1728182871_sIJFwKhz_15facda5722a7a8e8ef7d45e4b2b50532960bbb6.jpg",
    "area": "청주",
    "region": "대전/충청"
  },
  {
    "title": "[오피] 플러팅",
    "url": "https://dkxm8.com/profile_popup.php?idx=1227911&gubun=1",
    "description": "[목]❤️청주NO.1라인업❤️",
    "phone": "❤️010-2153-9777❤️",
    "kakao_id": "",
    "telegram_id": "",
    "hours": "❤️아침10시~새벽6시❤️",
    "thumbnail": "https://dkxm8.com/data/file/main/1728182447_NCQtmgq4_9f90435b8d19e83d2cc990dc8cd0ea1f30fdaa9c.jpg",
    "area": "청주",
    "region": "대전/충청"
  },
  {
    "title": "[건마] 놀러와스웨디시",
    "url": "https://dkxm8.com/profile_popup.php?idx=&gubun=1",
    "description": "청주 율량동",
    "phone": "010-2816-4532",
    "kakao_id": "",
    "telegram_id": "",
    "hours": "24시간 연중무휴",
    "thumbnail": "https://dkxm8.com/img/temp_thum.jpg",
    "area": "청주",
    "region": "대전/충청"
  },
  {
    "title": "[건마] 임하영1인샵",
    "url": "https://dkxm8.com/profile_popup.php?idx=1344926&gubun=1",
    "description": "❤️신규오픈I청주처음❤️",
    "phone": "❤️010 5933 6982❤️",
    "kakao_id": "",
    "telegram_id": "",
    "hours": "✡️청순 슬랜더✡️",
    "thumbnail": "https://dkxm8.com/data/file/main/2669311878_AOVZ0hno_d2064a434cfc10cf9491dc3ccde61b4077667c30.jpg",
    "area": "청주",
    "region": "대전/충청"
  },
  {
    "title": "[건마] 신세계스웨디시",
    "url": "https://dkxm8.com/profile_popup.php?idx=873898&gubun=1",
    "description": "⭐율량동 10시 오픈이요^^⭐",
    "phone": "❤️010-5556-2793❤️",
    "kakao_id": "",
    "telegram_id": "",
    "hours": "✈️ AM10:00~AM05:00✈️",
    "thumbnail": "https://dkxm8.com/data/file/main/1728182871_x8CZilJz_3f21fe4c1d4db17c5e37abc44471b80b1d92af2b.jpg",
    "area": "청주",
    "region": "대전/충청"
  },
  {
    "title": "[건마] 벤츠스웨디시",
    "url": "https://dkxm8.com/profile_popup.php?idx=1294188&gubun=1",
    "description": "❤️올인원 혀웨폭격여신❤️",
    "phone": "010-7621-4430",
    "kakao_id": "",
    "telegram_id": "",
    "hours": "AM 10:00 ~ AM 06:00",
    "thumbnail": "https://dkxm8.com/data/file/main/1502831947_yx267hwd_c5bad87efb0c3e165aa877091e4e5b673941954d.jpg",
    "area": "청주",
    "region": "대전/충청"
  },
  {
    "title": "[건마] 하루1인샵",
    "url": "https://dkxm8.com/profile_popup.php?idx=1306677&gubun=1",
    "description": "✨✅고속터미널✨하루네✅",
    "phone": "⏩010-5763-9685⏪",
    "kakao_id": "",
    "telegram_id": "",
    "hours": "✅10/4(토)♥영업중●❤️",
    "thumbnail": "https://dkxm8.com/data/file/main/1332623114_uHm4pd5R_29f46f0336cb53db6f951de194ba8953777f2ef5.jpg",
    "area": "청주",
    "region": "대전/충청"
  },
  {
    "title": "[휴게텔] 술이야",
    "url": "https://dkxm8.com/profile_popup.php?idx=648241&gubun=1",
    "description": "청주 봉명동 조회&후기1등!!",
    "phone": "010-9673-6050",
    "kakao_id": "",
    "telegram_id": "",
    "hours": "PM 01:00 ~ AM 05:00",
    "thumbnail": "https://dkxm8.com/data/file/main/1728182871_lfDGJ3x9_ad388d9ce158f3484cad7b59232767b0e835e1dc.gif",
    "area": "청주",
    "region": "대전/충청"
  },
  {
    "title": "[건마] 포엠",
    "url": "https://dkxm8.com/profile_popup.php?idx=650837&gubun=1",
    "description": "✈️압도적인 사이즈 ✈️",
    "phone": "❤️010-3626-7975❤️",
    "kakao_id": "",
    "telegram_id": "",
    "hours": "❣️12:00~03:00❣️",
    "thumbnail": "https://dkxm8.com/data/file/main/1728182447_Fx0LQC8n_45b712437ab9b260800753f7866a7e29122af161.jpg",
    "area": "청주",
    "region": "대전/충청"
  },
  {
    "title": "[오피] 천상계",
    "url": "https://dkxm8.com/profile_popup.php?idx=192342&gubun=1",
    "description": "목❤️보석같은 천상계여신~❤️",
    "phone": "❤️010-2116-4343❤️",
    "kakao_id": "",
    "telegram_id": "",
    "hours": "❤️낮1시부터~새벽5시까지❤️",
    "thumbnail": "https://dkxm8.com/data/file/main/1728182871_8KfFgmxX_8a74da4c4f9cb8dd26fdafea469423466b8aa705.jpg",
    "area": "청주",
    "region": "대전/충청"
  },
  {
    "title": "[건마] 뽕탕1인샵",
    "url": "https://dkxm8.com/profile_popup.php?idx=651118&gubun=1",
    "description": "청주시 흥덕구 봉명동",
    "phone": "010-9835-0400",
    "kakao_id": "",
    "telegram_id": "",
    "hours": "PM 13:00 ~ AM 01:00",
    "thumbnail": "https://dkxm8.com/data/file/main/1728182871_HxojW2zA_f3242727b78d2b0da31926bebdfa62bbb22e4999.gif",
    "area": "청주",
    "region": "대전/충청"
  },
  {
    "title": "[건마] 한예지1인샵",
    "url": "https://dkxm8.com/profile_popup.php?idx=1284016&gubun=1",
    "description": "❤️와꾸몸매완벽 옵션가능❤️",
    "phone": "010 - 4885 - 2058",
    "kakao_id": "",
    "telegram_id": "",
    "hours": "❤️야간 예약가능❤️",
    "thumbnail": "https://dkxm8.com/data/file/main/1502831902_G95s8CS2_c0196c9b5d6cca31f941ba41551957ac3834f5a7.jpg",
    "area": "청주",
    "region": "대전/충청"
  },
  {
    "title": "[건마] 색기녀",
    "url": "https://dkxm8.com/profile_popup.php?idx=1324967&gubun=1",
    "description": "강서동 마인드1등",
    "phone": "010-5521-7727",
    "kakao_id": "",
    "telegram_id": "",
    "hours": "✅오후2시~9시까지✅",
    "thumbnail": "https://dkxm8.com/data/file/main/2699961655_ej5Ft9yC_acad1a6b4edd70f07b7de31631c8e2f90ec9f0cf.jpg",
    "area": "청주",
    "region": "대전/충청"
  },
  {
    "title": "[키스방] happyㅎㅍ",
    "url": "https://dkxm8.com/profile_popup.php?idx=648602&gubun=1",
    "description": "♥스타킹/하이힐/무료서비스♥",
    "phone": "010-6452-9349",
    "kakao_id": "",
    "telegram_id": "",
    "hours": "영업중 매니저 구인중",
    "thumbnail": "https://dkxm8.com/data/file/main/1728182871_wxC3LFrz_c86c6ded12f2caed51dc99f37bd4be866785cb10.gif",
    "area": "청주",
    "region": "대전/충청"
  },
  {
    "title": "[건마] 나쁜마사지",
    "url": "https://dkxm8.com/profile_popup.php?idx=648415&gubun=1",
    "description": "청주봉명동 NF유리!",
    "phone": "010-6872-3288",
    "kakao_id": "",
    "telegram_id": "",
    "hours": "PM 01:00 ~ AM 04:00",
    "thumbnail": "https://dkxm8.com/data/file/main/1728182871_swU0a4X5_b452a50171d257b1b7131ac99fb8d6332e781715.gif",
    "area": "청주",
    "region": "대전/충청"
  },
  {
    "title": "[건마] 은비1인샵",
    "url": "https://dkxm8.com/profile_popup.php?idx=1343760&gubun=1",
    "description": "❤️와꾸 마인드 청주1번❤️",
    "phone": "010-5909-7357",
    "kakao_id": "",
    "telegram_id": "",
    "hours": "❣️옵션가능 마무리는 ㅇㅆ로❣️",
    "thumbnail": "https://dkxm8.com/data/file/main/1332623112_qdzgKLMh_8d4c327c85d8ce2d246a6c77848f2607abc73822.jpg",
    "area": "청주",
    "region": "대전/충청"
  },
  {
    "title": "[오피] 초월",
    "url": "https://dkxm8.com/profile_popup.php?idx=1149308&gubun=1",
    "description": "✡️업댓중✡️",
    "phone": "✅업댓중✅",
    "kakao_id": "",
    "telegram_id": "",
    "hours": "✨업댓중✨",
    "thumbnail": "https://dkxm8.com/data/file/main/1332623112_YWMks8Rj_b32227acdf2ca6a4e27a5cc30b8c21edc95f6660.jpg",
    "area": "청주",
    "region": "대전/충청"
  },
  {
    "title": "[건마] 무지개1인샵",
    "url": "https://dkxm8.com/profile_popup.php?idx=1312010&gubun=1",
    "description": "✨강서동✨고속버스✨터미널",
    "phone": "⭐010-2118-6006⭐",
    "kakao_id": "",
    "telegram_id": "",
    "hours": "⏰오전10:00 ~ 새벽03:00⏰|",
    "thumbnail": "https://dkxm8.com/data/file/main/1502831921_7u0h1y9f_e7163b78b7a90120199ad04c4322cccf7e09900a.jpg",
    "area": "청주",
    "region": "대전/충청"
  },
  {
    "title": "[건마] 설렘스웨디시",
    "url": "https://dkxm8.com/profile_popup.php?idx=1297699&gubun=1",
    "description": "❤️극하드 여신 NF출근❤️",
    "phone": "010-5966-2100",
    "kakao_id": "",
    "telegram_id": "",
    "hours": "❤️존예20대 단체가능❤️",
    "thumbnail": "https://dkxm8.com/data/file/main/1502831880_MLKBPaDh_0760b933e0f7deb5b481c9ba9103cbf50aae9eec.jpg",
    "area": "청주",
    "region": "대전/충청"
  },
  {
    "title": "[건마] 원나잇",
    "url": "https://dkxm8.com/profile_popup.php?idx=650826&gubun=1",
    "description": "용암동 용암광장",
    "phone": "010-5861-9322",
    "kakao_id": "",
    "telegram_id": "",
    "hours": "PM 24:00 ~ AM 24:00",
    "thumbnail": "https://dkxm8.com/data/file/main/1728182871_sYmecCaA_2f3793c2bad3981fff10eb069b2043880ef10609.jpg",
    "area": "청주",
    "region": "대전/충청"
  },
  {
    "title": "[건마] 야생크림",
    "url": "https://dkxm8.com/profile_popup.php?idx=650835&gubun=1",
    "description": "청주 율량동",
    "phone": "010-2232-5021",
    "kakao_id": "",
    "telegram_id": "",
    "hours": "PM 24:00 ~ AM 24:00",
    "thumbnail": "https://dkxm8.com/data/file/main/1728182871_elNgARpy_d910a5eca971ed09386e71d077895593ec7c97b3.jpg",
    "area": "청주",
    "region": "대전/충청"
  },
  {
    "title": "[휴게텔] 떡싸롱",
    "url": "https://dkxm8.com/profile_popup.php?idx=1310624&gubun=1",
    "description": "⭐️청주 최고 가성비 맛집⭐️",
    "phone": "리뉴얼중",
    "kakao_id": "",
    "telegram_id": "",
    "hours": "전원한국 오전11시-새벽4시",
    "thumbnail": "https://dkxm8.com/data/file/main/1502831921_kyeQNrix_da34e5bec4c1eea04a5c63eb175613fd46643511.jpg",
    "area": "청주",
    "region": "대전/충청"
  },
  {
    "title": "[건마] 청주KING",
    "url": "https://dkxm8.com/profile_popup.php?idx=1071776&gubun=1",
    "description": "용암동 동남지구 용암광장근처",
    "phone": "010-8490-5913",
    "kakao_id": "",
    "telegram_id": "",
    "hours": "24시간",
    "thumbnail": "https://dkxm8.com/data/file/main/1728182447_jLKUom4I_692a713d33879be4b8ac9ed7f757e2ffa160846a.jpg",
    "area": "청주",
    "region": "대전/충청"
  },
  {
    "title": "[건마] 유빈1인샵",
    "url": "https://dkxm8.com/profile_popup.php?idx=1334385&gubun=1",
    "description": "⭕️펨돔플가능⭕️카드결제가능",
    "phone": "0507-0180-9935",
    "kakao_id": "",
    "telegram_id": "",
    "hours": "⭕️전립선 키스가능⭕️옵션가능⭕️",
    "thumbnail": "https://dkxm8.com/data/file/main/1728182871_z5beMVSh_78e828aeb7baa60b144c4c57a386704cc023b244.jpg",
    "area": "청주",
    "region": "대전/충청"
  },
  {
    "title": "[휴게텔] 사쿠라さくら",
    "url": "https://dkxm8.com/profile_popup.php?idx=1243623&gubun=1",
    "description": "청주시 율량동",
    "phone": "010-8306-3489",
    "kakao_id": "",
    "telegram_id": "",
    "hours": "1pm ~ 05am",
    "thumbnail": "https://dkxm8.com/data/file/main/1728182447_4JZc5TuG_0fae03bfd82ef0243cf95724d1cf72976e356925.jpg",
    "area": "청주",
    "region": "대전/충청"
  },
  {
    "title": "[건마] 골드",
    "url": "https://dkxm8.com/profile_popup.php?idx=898876&gubun=1",
    "description": "청주시 흥덕구",
    "phone": "010-2150-3215",
    "kakao_id": "",
    "telegram_id": "",
    "hours": "24시간",
    "thumbnail": "https://dkxm8.com/data/file/main/1728182871_5b6HF2LZ_a488055a91b18370d2fd8b5f3bb9b4e2bfb5ede0.jpg",
    "area": "청주",
    "region": "대전/충청"
  },
  {
    "title": "[건마] 마카오",
    "url": "https://dkxm8.com/profile_popup.php?idx=1153703&gubun=1",
    "description": "청주 복대동",
    "phone": "010-8088-3961",
    "kakao_id": "",
    "telegram_id": "",
    "hours": "24시간",
    "thumbnail": "https://dkxm8.com/data/file/main/1502831880_ad7SMyj9_ccae166597f33163594987bf53a112e86396e6bf.jpg",
    "area": "청주",
    "region": "대전/충청"
  },
  {
    "title": "[건마] 이글스",
    "url": "https://dkxm8.com/profile_popup.php?idx=471933&gubun=1",
    "description": "세종",
    "phone": "010-5873-7666",
    "kakao_id": "",
    "telegram_id": "",
    "hours": "24시간",
    "thumbnail": "https://dkxm8.com/data/file/main/1728182871_KQD0hVq8_4a9a1713cb6ffd69cc8ff58651132425a7db7e52.jpg",
    "area": "세종",
    "region": "대전/충청"
  },
  {
    "title": "[건마] 샾잉스웨디시",
    "url": "https://dkxm8.com/profile_popup.php?idx=899391&gubun=1",
    "description": "❤️세종1티어❤️한국 예뿌니들",
    "phone": "❤️010-5847-3871❤️",
    "kakao_id": "",
    "telegram_id": "",
    "hours": "⭐오전 새벽 달료⭐",
    "thumbnail": "https://dkxm8.com/data/file/main/1728182871_UV4POywA_6c28e78c2c03e08cfe5a954f49035c5fba64a0e7.jpg",
    "area": "세종",
    "region": "대전/충청"
  },
  {
    "title": "[건마] 사쿠라",
    "url": "https://dkxm8.com/profile_popup.php?idx=1294719&gubun=1",
    "description": "도담동",
    "phone": "010-5865-0882",
    "kakao_id": "",
    "telegram_id": "",
    "hours": "24시간",
    "thumbnail": "https://dkxm8.com/data/file/main/1502831950_YRICs3ML_03444694607dd2cf226cc4b3dc253a77dd6b9c9d.jpg",
    "area": "세종",
    "region": "대전/충청"
  },
  {
    "title": "[휴게텔] 마인드출장",
    "url": "https://dkxm8.com/profile_popup.php?idx=1154486&gubun=1",
    "description": "세종시",
    "phone": "010-2601-2743",
    "kakao_id": "",
    "telegram_id": "",
    "hours": "24시",
    "thumbnail": "https://dkxm8.com/data/file/main/1728182447_dtsMz72G_5e43c2cc299b42fa18da5e0056901ab34ff9213e.jpg",
    "area": "세종",
    "region": "대전/충청"
  },
  {
    "title": "[건마] 이끌림스웨디시",
    "url": "https://dkxm8.com/profile_popup.php?idx=1357942&gubun=1",
    "description": "세종시 보람동❤️한국 스웨디시",
    "phone": "010-3219-6698",
    "kakao_id": "",
    "telegram_id": "",
    "hours": "10시~05시",
    "thumbnail": "https://dkxm8.com/img/temp_thum.jpg",
    "area": "세종",
    "region": "대전/충청"
  },
  {
    "title": "[건마] 홀릭스웨디시",
    "url": "https://dkxm8.com/profile_popup.php?idx=1354638&gubun=1",
    "description": "❣️세종시 나성동 먹자골목❣️",
    "phone": "❣️010-8173-7822❣️",
    "kakao_id": "",
    "telegram_id": "",
    "hours": "해뜰때까지고고☀️",
    "thumbnail": "https://dkxm8.com/data/file/main/1332623111_gqsx0zwT_e2209007ae990dfb7218a7832168f7932f298c90.jpg",
    "area": "세종",
    "region": "대전/충청"
  },
  {
    "title": "[건마] 슈퍼맨스웨디시",
    "url": "https://dkxm8.com/profile_popup.php?idx=859643&gubun=1",
    "description": "30분/10만/낮 이벤트!",
    "phone": "010-2281-3681",
    "kakao_id": "",
    "telegram_id": "",
    "hours": "집에 가지말까~?^^*",
    "thumbnail": "https://dkxm8.com/data/file/main/1728182871_ISUCAr9Z_d2a503413d79fd9347efaf007ade67faa559cd3f.jpg",
    "area": "세종",
    "region": "대전/충청"
  },
  {
    "title": "[건마] 복숭아",
    "url": "https://dkxm8.com/profile_popup.php?idx=1342842&gubun=1",
    "description": "세종 나성동",
    "phone": "010-7501-8293",
    "kakao_id": "",
    "telegram_id": "",
    "hours": "24시간",
    "thumbnail": "https://dkxm8.com/data/file/main/2699961699_BPCMmUAl_23c840397ab1878778b1677fe7d07fb70a5692dd.jpg",
    "area": "세종",
    "region": "대전/충청"
  },
  {
    "title": "[건마] 콜라스웨디시",
    "url": "https://dkxm8.com/profile_popup.php?idx=1318229&gubun=1",
    "description": "❤️나성동 한국20대NF ❤️",
    "phone": "010-8037-6696",
    "kakao_id": "",
    "telegram_id": "",
    "hours": "❤️13:00~04:00❤️",
    "thumbnail": "https://dkxm8.com/data/file/main/1502832065_qhdsl1pJ_cc90e15bc5f6f875128f7297403c1f0f3587d7e1.jpg",
    "area": "세종",
    "region": "대전/충청"
  },
  {
    "title": "[건마] 허니스웨디시",
    "url": "https://dkxm8.com/profile_popup.php?idx=955907&gubun=1",
    "description": "나성동 예쁜 뉴페 등장...❤",
    "phone": "❤️010-3414-6778❤️",
    "kakao_id": "",
    "telegram_id": "",
    "hours": "20대 뉴페 실사100%!!",
    "thumbnail": "https://dkxm8.com/data/file/main/1728182447_BG5Jl6VS_1d5bfb845886ff0c6b6e51f133ea53a8cfa07b45.jpg",
    "area": "세종",
    "region": "대전/충청"
  },
  {
    "title": "[건마] 샾잉스웨디시",
    "url": "https://dkxm8.com/profile_popup.php?idx=899391&gubun=1",
    "description": "❤️세종1티어❤️한국 예뿌니들",
    "phone": "❤️010-5847-3871❤️",
    "kakao_id": "",
    "telegram_id": "",
    "hours": "⭐오전 새벽 달료⭐",
    "thumbnail": "https://dkxm8.com/data/file/main/1728182871_UV4POywA_6c28e78c2c03e08cfe5a954f49035c5fba64a0e7.jpg",
    "area": "세종",
    "region": "대전/충청"
  },
  {
    "title": "[휴게텔] 마르지엘라",
    "url": "https://dkxm8.com/profile_popup.php?idx=1248439&gubun=1",
    "description": "❣️NF메이,NF슈 등장!❣️",
    "phone": "010-9809-2501",
    "kakao_id": "",
    "telegram_id": "",
    "hours": "█ 나성동 █ 13:00~ 05:00",
    "thumbnail": "https://dkxm8.com/data/file/main/1502831921_TlcNgZXM_cbf65cb7ec681992707d4df48313d19262ab431c.jpg",
    "area": "세종",
    "region": "대전/충청"
  },
  {
    "title": "[건마] 여우",
    "url": "https://dkxm8.com/profile_popup.php?idx=1228236&gubun=1",
    "description": "✅(한국,중국)♡세종 나성동✅",
    "phone": "010-7529-8628",
    "kakao_id": "",
    "telegram_id": "",
    "hours": "24시간 연중무휴",
    "thumbnail": "https://dkxm8.com/data/file/main/1728182871_BauAHz5I_2da1de31be6d4b637aabb8de68d3d65ca2d2328d.jpg",
    "area": "세종",
    "region": "대전/충청"
  },
  {
    "title": "[건마] 사쿠라",
    "url": "https://dkxm8.com/profile_popup.php?idx=1294719&gubun=1",
    "description": "도담동",
    "phone": "010-5865-0882",
    "kakao_id": "",
    "telegram_id": "",
    "hours": "24시간",
    "thumbnail": "https://dkxm8.com/data/file/main/1502831950_YRICs3ML_03444694607dd2cf226cc4b3dc253a77dd6b9c9d.jpg",
    "area": "세종",
    "region": "대전/충청"
  },
  {
    "title": "[건마] 요정",
    "url": "https://dkxm8.com/profile_popup.php?idx=669432&gubun=1",
    "description": "세종시나성로",
    "phone": "010-3973-7881",
    "kakao_id": "",
    "telegram_id": "",
    "hours": "24시",
    "thumbnail": "https://dkxm8.com/data/file/main/1728182871_ghZi86Fp_449cce57f628e2225efca1b690f2b904f4abed57.jpg",
    "area": "세종",
    "region": "대전/충청"
  },
  {
    "title": "[건마] The 딸",
    "url": "https://dkxm8.com/profile_popup.php?idx=648573&gubun=1",
    "description": "❤️올탈❤️하드❤️원샷6만원",
    "phone": "010-4638-1166",
    "kakao_id": "",
    "telegram_id": "",
    "hours": "PM 12:00 ~ AM 03:00",
    "thumbnail": "https://dkxm8.com/data/file/main/1728182871_KOkWYvdc_d0022aabb4799d8e5340e8f0725ebb91cdb126b5.jpg",
    "area": "세종",
    "region": "대전/충청"
  },
  {
    "title": "[건마] 이글스",
    "url": "https://dkxm8.com/profile_popup.php?idx=471933&gubun=1",
    "description": "세종",
    "phone": "010-5873-7666",
    "kakao_id": "",
    "telegram_id": "",
    "hours": "24시간",
    "thumbnail": "https://dkxm8.com/data/file/main/1728182871_KQD0hVq8_4a9a1713cb6ffd69cc8ff58651132425a7db7e52.jpg",
    "area": "세종",
    "region": "대전/충청"
  },
  {
    "title": "[건마] 신의손",
    "url": "https://dkxm8.com/profile_popup.php?idx=904631&gubun=1",
    "description": "세종시 도담동",
    "phone": "010-9843-2264",
    "kakao_id": "",
    "telegram_id": "",
    "hours": "P.M 12시부터~~",
    "thumbnail": "https://dkxm8.com/data/file/main/1728182871_vuSlaf1E_1b224b0f88596ca78079018ee9a9fb61c80dc062.jpg",
    "area": "세종",
    "region": "대전/충청"
  },
  {
    "title": "[건마] 린스웨디시",
    "url": "https://dkxm8.com/profile_popup.php?idx=649726&gubun=1",
    "description": "❤️나성동❤️할인이벤트❤️",
    "phone": "010-2116-1703",
    "kakao_id": "",
    "telegram_id": "",
    "hours": "PM 12:00 ~ AM 03:00",
    "thumbnail": "https://dkxm8.com/data/file/main/1728182871_A1f5ZeLS_3e9013e17e246ad4da5ad73bf53c060aa555315e.gif",
    "area": "세종",
    "region": "대전/충청"
  },
  {
    "title": "[건마] 은하수",
    "url": "https://dkxm8.com/profile_popup.php?idx=1301633&gubun=1",
    "description": "세종시 보람동",
    "phone": "010-9187-9363",
    "kakao_id": "",
    "telegram_id": "",
    "hours": "24시간",
    "thumbnail": "https://dkxm8.com/data/file/main/1502831880_lCnp506x_e44dbdbd9ff4e2e3bfe535e4832f6a9a4cc2f1bb.jpg",
    "area": "세종",
    "region": "대전/충청"
  },
  {
    "title": "[건마] 천사",
    "url": "https://dkxm8.com/profile_popup.php?idx=863226&gubun=1",
    "description": "세종특별자치시 고운동",
    "phone": "010-2155-3666",
    "kakao_id": "",
    "telegram_id": "",
    "hours": "PM 12:00 - AM 04:00",
    "thumbnail": "https://dkxm8.com/data/file/main/1728182871_rigo16l9_f7686523c8de3e405071d20640e3168ab76d0393.jpg",
    "area": "세종",
    "region": "대전/충청"
  },
  {
    "title": "[건마] 천사유혹",
    "url": "https://dkxm8.com/profile_popup.php?idx=1148575&gubun=1",
    "description": "세종시 나성동",
    "phone": "010-2268-6625",
    "kakao_id": "",
    "telegram_id": "",
    "hours": "24시간 연중무휴",
    "thumbnail": "https://dkxm8.com/data/file/main/1728182447_sVuMeDnG_532636ed60a9f3dae21407add00dadb728f5b5bf.jpg",
    "area": "세종",
    "region": "대전/충청"
  },
  {
    "title": "[건마] 아지트",
    "url": "https://dkxm8.com/profile_popup.php?idx=1276056&gubun=1",
    "description": "❣️오빠들 신입 와땅 놀루왕",
    "phone": "010-6701-1159",
    "kakao_id": "",
    "telegram_id": "",
    "hours": "오빵이들 놀러왕❣️",
    "thumbnail": "https://dkxm8.com/data/file/main/1332623114_Dz96On3J_82da71d8dc1aea8e150bc50c8ab2e8dad3f72527.jpg",
    "area": "세종",
    "region": "대전/충청"
  },
  {
    "title": "[건마] 행복",
    "url": "https://dkxm8.com/profile_popup.php?idx=1272466&gubun=1",
    "description": "세종시 보람동",
    "phone": "010-2182-8226",
    "kakao_id": "",
    "telegram_id": "",
    "hours": "24시간",
    "thumbnail": "https://dkxm8.com/data/file/main/1332623107_KIWGv0F1_5f705a75fd8036df42cf1653a47b2003ba24b643.jpg",
    "area": "세종",
    "region": "대전/충청"
  },
  {
    "title": "[건마] 고구마",
    "url": "https://dkxm8.com/profile_popup.php?idx=1129851&gubun=1",
    "description": "세종시 나성동",
    "phone": "010-5641-6813",
    "kakao_id": "",
    "telegram_id": "",
    "hours": "24시간",
    "thumbnail": "https://dkxm8.com/data/file/main/1502831880_ClN6uYpt_ebfb2822913736b3219d012a66193b16d8572a3a.jpg",
    "area": "세종",
    "region": "대전/충청"
  },
  {
    "title": "[건마] 심쿵스웨디시",
    "url": "https://dkxm8.com/profile_popup.php?idx=1208170&gubun=1",
    "description": "⚜️나성먹자골⚜️올탈싸이즈A+",
    "phone": "010-8110-7473단체가능",
    "kakao_id": "",
    "telegram_id": "",
    "hours": "⚜️NF여신급들 등장!!⚜️",
    "thumbnail": "https://dkxm8.com/data/file/main/1502832065_YtcGEz2r_e96cca105431f46ed77dcab3562f6f2aab5765b2.jpg",
    "area": "세종",
    "region": "대전/충청"
  },
  {
    "title": "[오피스텔] 스타벅스",
    "url": "https://dkxm8.com/profile_popup.php?idx=914845&gubun=1",
    "description": "호수공원근처",
    "phone": "010-2891-2885",
    "kakao_id": "",
    "telegram_id": "",
    "hours": "PM 01:00 ~ AM 03:00",
    "thumbnail": "https://dkxm8.com/data/file/main/1728182447_C7WV21IR_59ee6eccd87f5e80a6f06ea3c344909bd621d145.jpg",
    "area": "서산",
    "region": "대전/충청"
  },
  {
    "title": "[건마] 버블스웨디시",
    "url": "https://dkxm8.com/profile_popup.php?idx=1203947&gubun=1",
    "description": "충남 서산",
    "phone": "010-6507-2849",
    "kakao_id": "",
    "telegram_id": "",
    "hours": "am 11:00~am 04:00",
    "thumbnail": "https://dkxm8.com/data/file/main/2699961699_C81zNxkm_cd2e8e1f48623e799b8fd8ffea02685a84a83aee.jpg",
    "area": "서산",
    "region": "대전/충청"
  },
  {
    "title": "[오피스텔] 꽃밭",
    "url": "https://dkxm8.com/profile_popup.php?idx=1197188&gubun=1",
    "description": "❤️목❤️오늘의 라인업!",
    "phone": "010-2187-5888",
    "kakao_id": "",
    "telegram_id": "",
    "hours": "❤️전원한국매니저❤️",
    "thumbnail": "https://dkxm8.com/data/file/main/1728182447_0atW1kRy_676a9f1fce1f6d63d0eb9f855e473e1d4dbdb784.jpg",
    "area": "서산",
    "region": "대전/충청"
  },
  {
    "title": "[건마] 스위트스웨디시",
    "url": "https://dkxm8.com/profile_popup.php?idx=649383&gubun=1",
    "description": "충남 서산시 동문동",
    "phone": "010-8357-9171",
    "kakao_id": "",
    "telegram_id": "",
    "hours": "PM 12:00 - AM 5:00",
    "thumbnail": "https://dkxm8.com/img/temp_thum.jpg",
    "area": "서산",
    "region": "대전/충청"
  },
  {
    "title": "[건마] 버블스웨디시",
    "url": "https://dkxm8.com/profile_popup.php?idx=1203947&gubun=1",
    "description": "충남 서산",
    "phone": "010-6507-2849",
    "kakao_id": "",
    "telegram_id": "",
    "hours": "am 11:00~am 04:00",
    "thumbnail": "https://dkxm8.com/data/file/main/2699961699_C81zNxkm_cd2e8e1f48623e799b8fd8ffea02685a84a83aee.jpg",
    "area": "서산",
    "region": "대전/충청"
  },
  {
    "title": "[오피] 꽃밭",
    "url": "https://dkxm8.com/profile_popup.php?idx=1197188&gubun=1",
    "description": "❤️목❤️오늘의 라인업!",
    "phone": "010-2187-5888",
    "kakao_id": "",
    "telegram_id": "",
    "hours": "❤️전원한국매니저❤️",
    "thumbnail": "https://dkxm8.com/data/file/main/1728182447_0atW1kRy_676a9f1fce1f6d63d0eb9f855e473e1d4dbdb784.jpg",
    "area": "서산",
    "region": "대전/충청"
  },
  {
    "title": "[오피] 스타벅스",
    "url": "https://dkxm8.com/profile_popup.php?idx=914845&gubun=1",
    "description": "호수공원근처",
    "phone": "010-2891-2885",
    "kakao_id": "",
    "telegram_id": "",
    "hours": "PM 01:00 ~ AM 03:00",
    "thumbnail": "https://dkxm8.com/data/file/main/1728182447_C7WV21IR_59ee6eccd87f5e80a6f06ea3c344909bd621d145.jpg",
    "area": "서산",
    "region": "대전/충청"
  },
  {
    "title": "[휴게텔] 당신",
    "url": "https://dkxm8.com/profile_popup.php?idx=1276300&gubun=1",
    "description": "❤️후기할인❤️사이즈최강❤️",
    "phone": "✅010-7512-4608✅",
    "kakao_id": "",
    "telegram_id": "",
    "hours": "❤️1pm~5am❤️",
    "thumbnail": "https://dkxm8.com/data/file/main/1332623114_ID9Jchn8_be15e75953a3326f4fea036dd0b51172aaaba1f3.jpg",
    "area": "당진",
    "region": "대전/충청"
  },
  {
    "title": "[휴게텔] 여자친구",
    "url": "https://dkxm8.com/profile_popup.php?idx=648275&gubun=1",
    "description": "당진시 송산면",
    "phone": "010-9637-2922",
    "kakao_id": "",
    "telegram_id": "",
    "hours": "PM 14:00 ~ AM 04:00",
    "thumbnail": "https://dkxm8.com/data/file/main/1502832065_a4oIn91b_11c0f15c5643b386074decdc29ea01089311de1d.jpg",
    "area": "당진",
    "region": "대전/충청"
  },
  {
    "title": "[오피스텔] 당진러시아출장",
    "url": "https://dkxm8.com/profile_popup.php?idx=1246467&gubun=1",
    "description": "당진출장전문방문가능",
    "phone": "010-8129-2638",
    "kakao_id": "",
    "telegram_id": "",
    "hours": "오후4:00~오전6:00",
    "thumbnail": "https://dkxm8.com/data/file/main/1502832069_5Fb2acv3_2001af7f73d1ef274c46c75197921120c1a9b7b7.jpg",
    "area": "당진",
    "region": "대전/충청"
  },
  {
    "title": "[휴게텔] 당신",
    "url": "https://dkxm8.com/profile_popup.php?idx=1276300&gubun=1",
    "description": "❤️후기할인❤️사이즈최강❤️",
    "phone": "✅010-7512-4608✅",
    "kakao_id": "",
    "telegram_id": "",
    "hours": "❤️1pm~5am❤️",
    "thumbnail": "https://dkxm8.com/data/file/main/1332623114_ID9Jchn8_be15e75953a3326f4fea036dd0b51172aaaba1f3.jpg",
    "area": "당진",
    "region": "대전/충청"
  },
  {
    "title": "[오피] 당진러시아출장",
    "url": "https://dkxm8.com/profile_popup.php?idx=1246467&gubun=1",
    "description": "당진출장전문방문가능",
    "phone": "010-8129-2638",
    "kakao_id": "",
    "telegram_id": "",
    "hours": "오후4:00~오전6:00",
    "thumbnail": "https://dkxm8.com/data/file/main/1502832069_5Fb2acv3_2001af7f73d1ef274c46c75197921120c1a9b7b7.jpg",
    "area": "당진",
    "region": "대전/충청"
  },
  {
    "title": "[휴게텔] 여자친구",
    "url": "https://dkxm8.com/profile_popup.php?idx=648275&gubun=1",
    "description": "당진시 송산면",
    "phone": "010-9637-2922",
    "kakao_id": "",
    "telegram_id": "",
    "hours": "PM 14:00 ~ AM 04:00",
    "thumbnail": "https://dkxm8.com/data/file/main/1502832065_a4oIn91b_11c0f15c5643b386074decdc29ea01089311de1d.jpg",
    "area": "당진",
    "region": "대전/충청"
  },
  {
    "title": "[건마] 다이아스웨디시",
    "url": "https://dkxm8.com/profile_popup.php?idx=1365421&gubun=1",
    "description": "♥️읍내동 문예의전당 근처♥️",
    "phone": "010-8174-7010",
    "kakao_id": "",
    "telegram_id": "",
    "hours": "♥️12시 ~ 03시♥️",
    "thumbnail": "https://dkxm8.com/data/file/main/2669311878_MNXu60zZ_5a81d54b907421ae5e1e3293161b8b8f25cf52da.jpg",
    "area": "당진",
    "region": "대전/충청"
  },
  {
    "title": "[오피] 퍼스트",
    "url": "https://dkxm8.com/profile_popup.php?idx=1234573&gubun=1",
    "description": "충청남도 당진시",
    "phone": "010-8114-1153",
    "kakao_id": "",
    "telegram_id": "",
    "hours": "PM 02:00 ~ AM 05:00",
    "thumbnail": "https://dkxm8.com/data/file/main/2699961636_mR4A03Ws_9711aa6b37253e7231401be78bc66b9b9f15257c.jpg",
    "area": "당진",
    "region": "대전/충청"
  },
  {
    "title": "[건마] 효녀출장",
    "url": "https://dkxm8.com/profile_popup.php?idx=1243657&gubun=1",
    "description": "A급수질❤️출장업소❤️",
    "phone": "010-9909-5176",
    "kakao_id": "",
    "telegram_id": "",
    "hours": "24시간",
    "thumbnail": "https://dkxm8.com/data/file/main/1728182871_xBTJZ5LV_38b7327406777e74eaf659411791ba3b6e3138bb.jpg",
    "area": "당진",
    "region": "대전/충청"
  },
  {
    "title": "[건마] 몽마사지",
    "url": "https://dkxm8.com/profile_popup.php?idx=1194554&gubun=1",
    "description": "보령 대천",
    "phone": "010 6581 4686",
    "kakao_id": "",
    "telegram_id": "",
    "hours": "pm 01~am 04",
    "thumbnail": "https://dkxm8.com/data/file/main/1728182447_hAgtjRKf_faf214349a315d40584a73aa8c165c58aba8bb87.jpg",
    "area": "보령",
    "region": "대전/충청"
  },
  {
    "title": "[오피스텔] 만남의광장",
    "url": "https://dkxm8.com/profile_popup.php?idx=1012096&gubun=1",
    "description": "보령 대천 청양 무창포",
    "phone": "010-9824-3677",
    "kakao_id": "",
    "telegram_id": "",
    "hours": "PM 12:00~ AM 04:00",
    "thumbnail": "https://dkxm8.com/data/file/main/1728182871_F3BlbM6D_c0e2d494e4522e0444d55820425aa283e116d0a2.jpg",
    "area": "보령",
    "region": "대전/충청"
  },
  {
    "title": "[건마] 몽마사지",
    "url": "https://dkxm8.com/profile_popup.php?idx=1194554&gubun=1",
    "description": "보령 대천",
    "phone": "010 6581 4686",
    "kakao_id": "",
    "telegram_id": "",
    "hours": "pm 01~am 04",
    "thumbnail": "https://dkxm8.com/data/file/main/1728182447_hAgtjRKf_faf214349a315d40584a73aa8c165c58aba8bb87.jpg",
    "area": "보령",
    "region": "대전/충청"
  },
  {
    "title": "[오피] 만남의광장",
    "url": "https://dkxm8.com/profile_popup.php?idx=1012096&gubun=1",
    "description": "보령 대천 청양 무창포",
    "phone": "010-9824-3677",
    "kakao_id": "",
    "telegram_id": "",
    "hours": "PM 12:00~ AM 04:00",
    "thumbnail": "https://dkxm8.com/data/file/main/1728182871_F3BlbM6D_c0e2d494e4522e0444d55820425aa283e116d0a2.jpg",
    "area": "보령",
    "region": "대전/충청"
  },
  {
    "title": "[건마] 꿀",
    "url": "https://dkxm8.com/profile_popup.php?idx=648229&gubun=1",
    "description": "진천,음성",
    "phone": "010 8022 4898",
    "kakao_id": "",
    "telegram_id": "",
    "hours": "24시간",
    "thumbnail": "https://dkxm8.com/data/file/main/1332623111_MbKdYkmQ_6ccc1705e9aeffe9177fddb46fd73e3252ad62fc.jpg",
    "area": "진천",
    "region": "대전/충청"
  },
  {
    "title": "[오피스텔] 디올",
    "url": "https://dkxm8.com/profile_popup.php?idx=648427&gubun=1",
    "description": "[진천]❤️착한가격 디올❤️",
    "phone": "010-9119-1910",
    "kakao_id": "",
    "telegram_id": "",
    "hours": "✳️전원 한국매니져✳️",
    "thumbnail": "https://dkxm8.com/data/file/main/1728182871_EbzLviM8_588d6ca74b50c140f2ea8d80b3d4bfe1d9809fcd.gif",
    "area": "진천",
    "region": "대전/충청"
  },
  {
    "title": "[오피스텔] 여비서",
    "url": "https://dkxm8.com/profile_popup.php?idx=648858&gubun=1",
    "description": "충북진천 오피!! 여비서♡",
    "phone": "010-3982-2307",
    "kakao_id": "",
    "telegram_id": "",
    "hours": "PM 12:00 ~ AM 05:00",
    "thumbnail": "https://dkxm8.com/data/file/main/1728182871_0cC7i3FV_6093441c63216f78ff1756fb632b4c4d13c5e45a.gif",
    "area": "진천",
    "region": "대전/충청"
  },
  {
    "title": "[휴게텔] 이자카야",
    "url": "https://dkxm8.com/profile_popup.php?idx=648232&gubun=1",
    "description": "음성진천이천오창청주충주천안",
    "phone": "010-6806-0955",
    "kakao_id": "",
    "telegram_id": "",
    "hours": "PM 13:00~ AM 4:00",
    "thumbnail": "https://dkxm8.com/data/file/main/1728182871_zdhF7lBu_714e65fa0449da1c8e46445e9199dae0315f9ba3.jpg",
    "area": "진천",
    "region": "대전/충청"
  },
  {
    "title": "[오피] 디올",
    "url": "https://dkxm8.com/profile_popup.php?idx=648427&gubun=1",
    "description": "[진천]❤️착한가격 디올❤️",
    "phone": "010-9119-1910",
    "kakao_id": "",
    "telegram_id": "",
    "hours": "✳️전원 한국매니져✳️",
    "thumbnail": "https://dkxm8.com/data/file/main/1728182871_EbzLviM8_588d6ca74b50c140f2ea8d80b3d4bfe1d9809fcd.gif",
    "area": "진천",
    "region": "대전/충청"
  },
  {
    "title": "[휴게텔] 사쿠라",
    "url": "https://dkxm8.com/profile_popup.php?idx=1335726&gubun=1",
    "description": "음성진천천안오창청주충주",
    "phone": "010-7307-2784",
    "kakao_id": "",
    "telegram_id": "",
    "hours": "PM 12:00 ~ AM 5:00",
    "thumbnail": "https://dkxm8.com/img/temp_thum.jpg",
    "area": "진천",
    "region": "대전/충청"
  },
  {
    "title": "[건마] 꿀",
    "url": "https://dkxm8.com/profile_popup.php?idx=648229&gubun=1",
    "description": "진천,음성",
    "phone": "010 8022 4898",
    "kakao_id": "",
    "telegram_id": "",
    "hours": "24시간",
    "thumbnail": "https://dkxm8.com/data/file/main/1332623111_MbKdYkmQ_6ccc1705e9aeffe9177fddb46fd73e3252ad62fc.jpg",
    "area": "진천",
    "region": "대전/충청"
  },
  {
    "title": "[오피] 여비서",
    "url": "https://dkxm8.com/profile_popup.php?idx=648858&gubun=1",
    "description": "충북진천 오피!! 여비서♡",
    "phone": "010-3982-2307",
    "kakao_id": "",
    "telegram_id": "",
    "hours": "PM 12:00 ~ AM 05:00",
    "thumbnail": "https://dkxm8.com/data/file/main/1728182871_0cC7i3FV_6093441c63216f78ff1756fb632b4c4d13c5e45a.gif",
    "area": "진천",
    "region": "대전/충청"
  },
  {
    "title": "[휴게텔] 미끌미끌",
    "url": "https://dkxm8.com/profile_popup.php?idx=770014&gubun=1",
    "description": "아산시♥1등업소♥",
    "phone": "010-2352-6446",
    "kakao_id": "",
    "telegram_id": "",
    "hours": "PM 12:00 ~ AM 05:00",
    "thumbnail": "https://dkxm8.com/data/file/main/1728182871_gSiKzjV6_03bc8a9d45e69c54dbda8b9d245e6ad5c48db206.gif",
    "area": "아산",
    "region": "대전/충청"
  },
  {
    "title": "[건마] 차이나아로마",
    "url": "https://dkxm8.com/profile_popup.php?idx=649669&gubun=1",
    "description": "아산시 탕정면",
    "phone": "010-7400-1533",
    "kakao_id": "",
    "telegram_id": "",
    "hours": "PM 24:00 ~ AM 24:00",
    "thumbnail": "https://dkxm8.com/data/file/main/1728182871_8FUwdS2v_49bb89f637e0264c40c860b38b04503582de68da.gif",
    "area": "아산",
    "region": "대전/충청"
  },
  {
    "title": "[건마] 썸씽",
    "url": "https://dkxm8.com/profile_popup.php?idx=963815&gubun=1",
    "description": "아산시 배방읍",
    "phone": "010-5959-0989",
    "kakao_id": "",
    "telegram_id": "",
    "hours": "24시간",
    "thumbnail": "https://dkxm8.com/data/file/main/1728182871_X8132UVO_77561b0e7a6d9db30482674171dd0713087b1592.jpg",
    "area": "아산",
    "region": "대전/충청"
  },
  {
    "title": "[휴게텔] 더퀸",
    "url": "https://dkxm8.com/profile_popup.php?idx=683466&gubun=1",
    "description": "충남 아산시 용화동",
    "phone": "010-5685-9509",
    "kakao_id": "",
    "telegram_id": "",
    "hours": "PM 13:00 ~ AM 04:00",
    "thumbnail": "https://dkxm8.com/data/file/main/1728182871_o6BTmRdw_5258bc01b9417405ad62ce1534079edfa5ce5159.gif",
    "area": "아산",
    "region": "대전/충청"
  },
  {
    "title": "[휴게텔] 미끌미끌",
    "url": "https://dkxm8.com/profile_popup.php?idx=770014&gubun=1",
    "description": "아산시♥1등업소♥",
    "phone": "010-2352-6446",
    "kakao_id": "",
    "telegram_id": "",
    "hours": "PM 12:00 ~ AM 05:00",
    "thumbnail": "https://dkxm8.com/data/file/main/1728182871_gSiKzjV6_03bc8a9d45e69c54dbda8b9d245e6ad5c48db206.gif",
    "area": "아산",
    "region": "대전/충청"
  },
  {
    "title": "[휴게텔] 사쿠라",
    "url": "https://dkxm8.com/profile_popup.php?idx=1365944&gubun=1",
    "description": "충남 아산시 용화동1등",
    "phone": "010-8159-3252",
    "kakao_id": "",
    "telegram_id": "",
    "hours": "오후1시 ~ 새벽4시",
    "thumbnail": "https://dkxm8.com/data/file/main/2669311878_Y6RSWED2_198d9f60ec09fef4becb7dfa2ee502113f2f9e60.jpg",
    "area": "아산",
    "region": "대전/충청"
  },
  {
    "title": "[건마] 앵두출장",
    "url": "https://dkxm8.com/profile_popup.php?idx=649477&gubun=1",
    "description": "⭐⛔충청전지역큐트걸⭐⛔",
    "phone": "010-0000-0000",
    "kakao_id": "",
    "telegram_id": "",
    "hours": "PM 24:00 ~ AM 24:00",
    "thumbnail": "https://dkxm8.com/data/file/main/1728182447_fZBH3CDr_136e4acb84bdc44a8df5983e127e34bdf803bb65.jpg",
    "area": "아산",
    "region": "대전/충청"
  },
  {
    "title": "[건마] 초이스",
    "url": "https://dkxm8.com/profile_popup.php?idx=951798&gubun=1",
    "description": "충청남도 아산시 둔포면",
    "phone": "010-3904-3606",
    "kakao_id": "",
    "telegram_id": "",
    "hours": "24시간",
    "thumbnail": "https://dkxm8.com/data/file/main/1502831950_jesMoHDQ_56e3d5b999a7a770a4f9465e6951e8afb19bf039.jpg",
    "area": "아산",
    "region": "대전/충청"
  },
  {
    "title": "[건마] 썸씽",
    "url": "https://dkxm8.com/profile_popup.php?idx=963815&gubun=1",
    "description": "아산시 배방읍",
    "phone": "010-5959-0989",
    "kakao_id": "",
    "telegram_id": "",
    "hours": "24시간",
    "thumbnail": "https://dkxm8.com/data/file/main/1728182871_X8132UVO_77561b0e7a6d9db30482674171dd0713087b1592.jpg",
    "area": "아산",
    "region": "대전/충청"
  },
  {
    "title": "[건마] 차이나아로마",
    "url": "https://dkxm8.com/profile_popup.php?idx=649669&gubun=1",
    "description": "아산시 탕정면",
    "phone": "010-7400-1533",
    "kakao_id": "",
    "telegram_id": "",
    "hours": "PM 24:00 ~ AM 24:00",
    "thumbnail": "https://dkxm8.com/data/file/main/1728182871_8FUwdS2v_49bb89f637e0264c40c860b38b04503582de68da.gif",
    "area": "아산",
    "region": "대전/충청"
  },
  {
    "title": "[휴게텔] 샴푸",
    "url": "https://dkxm8.com/profile_popup.php?idx=719261&gubun=1",
    "description": "온양온천역/용화동",
    "phone": "010-8157-9585",
    "kakao_id": "",
    "telegram_id": "",
    "hours": "1pm - 5am",
    "thumbnail": "https://dkxm8.com/data/file/main/1728182871_dFa9w1kv_0986f1915d711498c4da8926ad076f67e37de88e.gif",
    "area": "아산",
    "region": "대전/충청"
  },
  {
    "title": "[휴게텔] 테크노밸리",
    "url": "https://dkxm8.com/profile_popup.php?idx=648585&gubun=1",
    "description": "충남/아산 둔포",
    "phone": "010-2801-5480",
    "kakao_id": "",
    "telegram_id": "",
    "hours": "PM 13:00 ~ AM 05:00",
    "thumbnail": "https://dkxm8.com/data/file/main/1728182871_s7mzANea_f1b8e6ef0f2599acc49babbf4ea183e433577bf8.gif",
    "area": "아산",
    "region": "대전/충청"
  },
  {
    "title": "[휴게텔] 낙원",
    "url": "https://dkxm8.com/profile_popup.php?idx=989356&gubun=1",
    "description": "⏩❤️충주 신연수동❤️ (제천",
    "phone": "⏩⏩010-5714-3585",
    "kakao_id": "",
    "telegram_id": "",
    "hours": "⏩ PM12:00~AM05:00",
    "thumbnail": "https://dkxm8.com/data/file/main/1728182871_tIbdTru1_a1a1217d1c5402f9db9c67f271c5ccf2c164f2ec.jpg",
    "area": "충주",
    "region": "대전/충청"
  },
  {
    "title": "[건마] 밀크스웨디시",
    "url": "https://dkxm8.com/profile_popup.php?idx=1113250&gubun=1",
    "description": "충주 구연수동 부근",
    "phone": "010-6448-6673",
    "kakao_id": "",
    "telegram_id": "",
    "hours": "오후 12:00 ~ 오전 4:00",
    "thumbnail": "https://dkxm8.com/data/file/main/1332623111_JyBxIDkz_1809b0e73ac2325b8d92ab3d1dbac11c3a14f039.jpg",
    "area": "충주",
    "region": "대전/충청"
  },
  {
    "title": "[건마] 포텐",
    "url": "https://dkxm8.com/profile_popup.php?idx=1316038&gubun=1",
    "description": "충주 중앙탑면 인근",
    "phone": "010-5950-8651",
    "kakao_id": "",
    "telegram_id": "",
    "hours": "PM 12:00 ~ AM 04:00",
    "thumbnail": "https://dkxm8.com/data/file/main/2699961655_h5aytinz_f5953accc907ba9583b04987d190a9b5bd927b40.jpg",
    "area": "충주",
    "region": "대전/충청"
  },
  {
    "title": "[건마] 포텐",
    "url": "https://dkxm8.com/profile_popup.php?idx=1316038&gubun=1",
    "description": "충주 중앙탑면 인근",
    "phone": "010-5950-8651",
    "kakao_id": "",
    "telegram_id": "",
    "hours": "PM 12:00 ~ AM 04:00",
    "thumbnail": "https://dkxm8.com/data/file/main/2699961655_h5aytinz_f5953accc907ba9583b04987d190a9b5bd927b40.jpg",
    "area": "충주",
    "region": "대전/충청"
  },
  {
    "title": "[휴게텔] 낙원",
    "url": "https://dkxm8.com/profile_popup.php?idx=989356&gubun=1",
    "description": "⏩❤️충주 신연수동❤️ (제천",
    "phone": "⏩⏩010-5714-3585",
    "kakao_id": "",
    "telegram_id": "",
    "hours": "⏩ PM12:00~AM05:00",
    "thumbnail": "https://dkxm8.com/data/file/main/1728182871_tIbdTru1_a1a1217d1c5402f9db9c67f271c5ccf2c164f2ec.jpg",
    "area": "충주",
    "region": "대전/충청"
  },
  {
    "title": "[휴게텔] 세븐",
    "url": "https://dkxm8.com/profile_popup.php?idx=1092835&gubun=1",
    "description": "♥충주시 연수동♥",
    "phone": "♥010-7901-2605♥",
    "kakao_id": "",
    "telegram_id": "",
    "hours": "♥PM 12:00~AM 05:00",
    "thumbnail": "https://dkxm8.com/data/file/main/1332623112_7MIDbwtZ_b0c1cf3636d8524ccb96cef006c4329aa40e1f22.jpg",
    "area": "충주",
    "region": "대전/충청"
  },
  {
    "title": "[건마] 밀크스웨디시",
    "url": "https://dkxm8.com/profile_popup.php?idx=1113250&gubun=1",
    "description": "충주 구연수동 부근",
    "phone": "010-6448-6673",
    "kakao_id": "",
    "telegram_id": "",
    "hours": "오후 12:00 ~ 오전 4:00",
    "thumbnail": "https://dkxm8.com/data/file/main/1332623111_JyBxIDkz_1809b0e73ac2325b8d92ab3d1dbac11c3a14f039.jpg",
    "area": "충주",
    "region": "대전/충청"
  },
  {
    "title": "[휴게텔] 코인",
    "url": "https://dkxm8.com/profile_popup.php?idx=1299200&gubun=1",
    "description": "충주 신연수동 부근",
    "phone": "010-8435-4487",
    "kakao_id": "",
    "telegram_id": "",
    "hours": "PM 01:00 ~ AM 04:00",
    "thumbnail": "https://dkxm8.com/data/file/main/1502831880_BYxeolfw_fb427afaeda68c915cc3572999682c37ea732d8a.jpg",
    "area": "충주",
    "region": "대전/충청"
  },
  {
    "title": "[휴게텔] 강남미시",
    "url": "https://dkxm8.com/profile_popup.php?idx=1305665&gubun=1",
    "description": "홍성군 홍성시장 근처",
    "phone": "010-2135-3227",
    "kakao_id": "",
    "telegram_id": "",
    "hours": "❤️번호 변경❤️",
    "thumbnail": "https://dkxm8.com/data/file/main/1502832116_fKaz2Xi4_262914096ea37386de63d64536a05e9ec31ed52d.jpg",
    "area": "홍성",
    "region": "대전/충청"
  },
  {
    "title": "[건마] 외로움출장",
    "url": "https://dkxm8.com/profile_popup.php?idx=1292719&gubun=1",
    "description": "홍성/당진/천안/아산",
    "phone": "010 6828 8130",
    "kakao_id": "",
    "telegram_id": "",
    "hours": "24시",
    "thumbnail": "https://dkxm8.com/data/file/main/1502831950_GbwCjitY_9bb983c5a2c726e7c1179ac1bcd3762fb97b91dd.jpg",
    "area": "홍성",
    "region": "대전/충청"
  },
  {
    "title": "[건마] 외로움출장",
    "url": "https://dkxm8.com/profile_popup.php?idx=1292719&gubun=1",
    "description": "홍성/당진/천안/아산",
    "phone": "010 6828 8130",
    "kakao_id": "",
    "telegram_id": "",
    "hours": "24시",
    "thumbnail": "https://dkxm8.com/data/file/main/1502831950_GbwCjitY_9bb983c5a2c726e7c1179ac1bcd3762fb97b91dd.jpg",
    "area": "홍성",
    "region": "대전/충청"
  },
  {
    "title": "[휴게텔] 강남미시",
    "url": "https://dkxm8.com/profile_popup.php?idx=1305665&gubun=1",
    "description": "홍성군 홍성시장 근처",
    "phone": "010-2135-3227",
    "kakao_id": "",
    "telegram_id": "",
    "hours": "❤️번호 변경❤️",
    "thumbnail": "https://dkxm8.com/data/file/main/1502832116_fKaz2Xi4_262914096ea37386de63d64536a05e9ec31ed52d.jpg",
    "area": "홍성",
    "region": "대전/충청"
  },
  {
    "title": "[오피스텔] 하리보",
    "url": "https://dkxm8.com/profile_popup.php?idx=1244008&gubun=1",
    "description": "❤️취암동❤️오거리 터미널근처",
    "phone": "010-4379-8642",
    "kakao_id": "",
    "telegram_id": "",
    "hours": "1PM ~ 4AM",
    "thumbnail": "https://dkxm8.com/data/file/main/1502832061_pINkPh6i_1348b6e468bff0918588ea9453c7f917ef8f0390.jpg",
    "area": "논산",
    "region": "대전/충청"
  },
  {
    "title": "[건마] 달콤스웨디시",
    "url": "https://dkxm8.com/profile_popup.php?idx=1223296&gubun=1",
    "description": "충남 논산시 취암동",
    "phone": "010-2647-5786",
    "kakao_id": "",
    "telegram_id": "",
    "hours": "PM 12:00 ~ AM 03:00",
    "thumbnail": "https://dkxm8.com/data/file/main/1332623118_Cowr6yTx_b400bf195e424b2d3a12579de8d23c969b766413.jpg",
    "area": "논산",
    "region": "대전/충청"
  },
  {
    "title": "[오피] 하리보",
    "url": "https://dkxm8.com/profile_popup.php?idx=1244008&gubun=1",
    "description": "❤️취암동❤️오거리 터미널근처",
    "phone": "010-4379-8642",
    "kakao_id": "",
    "telegram_id": "",
    "hours": "1PM ~ 4AM",
    "thumbnail": "https://dkxm8.com/data/file/main/1502832061_pINkPh6i_1348b6e468bff0918588ea9453c7f917ef8f0390.jpg",
    "area": "논산",
    "region": "대전/충청"
  },
  {
    "title": "[건마] 달콤스웨디시",
    "url": "https://dkxm8.com/profile_popup.php?idx=1223296&gubun=1",
    "description": "충남 논산시 취암동",
    "phone": "010-2647-5786",
    "kakao_id": "",
    "telegram_id": "",
    "hours": "PM 12:00 ~ AM 03:00",
    "thumbnail": "https://dkxm8.com/data/file/main/1332623118_Cowr6yTx_b400bf195e424b2d3a12579de8d23c969b766413.jpg",
    "area": "논산",
    "region": "대전/충청"
  },
  {
    "title": "[건마] 압구정스웨디시",
    "url": "https://dkxm8.com/profile_popup.php?idx=650489&gubun=1",
    "description": "❤️하드스웨디시&전통마사지❤️",
    "phone": "010-5944-5536",
    "kakao_id": "",
    "telegram_id": "",
    "hours": "❤️재방률,마인드 최고❤️",
    "thumbnail": "https://dkxm8.com/data/file/main/1728182447_4ELevfx6_f0175bfbff1476991b20edc3cb30aa6e7308bc12.jpg",
    "area": "오창",
    "region": "대전/충청"
  },
  {
    "title": "[휴게텔] 교복",
    "url": "https://dkxm8.com/profile_popup.php?idx=1265030&gubun=1",
    "description": "❤️오창❤️홈플러스 부근❤️",
    "phone": "010-8156-2880",
    "kakao_id": "",
    "telegram_id": "",
    "hours": "PM 01:00~AM 05:00",
    "thumbnail": "https://dkxm8.com/data/file/main/1332623107_IUVjPpoM_89bf16225658ad637f456e6be06934508f0c1cff.jpg",
    "area": "오창",
    "region": "대전/충청"
  },
  {
    "title": "[휴게텔] 크림",
    "url": "https://dkxm8.com/profile_popup.php?idx=648257&gubun=1",
    "description": "오창태국♥NF 수정.지아♥",
    "phone": "010-4408-6955",
    "kakao_id": "",
    "telegram_id": "",
    "hours": "PM 2:00 ~ AM 04:00",
    "thumbnail": "https://dkxm8.com/data/file/main/1728182447_7m5ctpHk_481c6374bd5cc5be4306e9e028fec1ef374a62c8.jpg",
    "area": "오창",
    "region": "대전/충청"
  },
  {
    "title": "[휴게텔] 오뚜기",
    "url": "https://dkxm8.com/profile_popup.php?idx=648452&gubun=1",
    "description": "✅오창✅NF유리출근✅인증완료",
    "phone": "010-8271-7569",
    "kakao_id": "",
    "telegram_id": "",
    "hours": "❤️하드코어❤️최고가성비❤️",
    "thumbnail": "https://dkxm8.com/data/file/main/1728182871_z4duo8vV_f3db506dd1f7e2171ded387d8c75fdb51f3418b1.jpg",
    "area": "오창",
    "region": "대전/충청"
  },
  {
    "title": "[휴게텔] 꽃밭",
    "url": "https://dkxm8.com/profile_popup.php?idx=1314943&gubun=1",
    "description": "⛔오창✅호수공원✅2산단⛔NF",
    "phone": "⭕️010-3910-8920⭕️",
    "kakao_id": "",
    "telegram_id": "",
    "hours": "⭕️pm01:00~am05:00⭕️",
    "thumbnail": "https://dkxm8.com/img/temp_thum.jpg",
    "area": "오창",
    "region": "대전/충청"
  },
  {
    "title": "[건마] 오렌지",
    "url": "https://dkxm8.com/profile_popup.php?idx=648825&gubun=1",
    "description": "✨청주시✨오창✨홈플러스✨",
    "phone": "010-8069-7566",
    "kakao_id": "",
    "telegram_id": "",
    "hours": "24시간 연중무휴",
    "thumbnail": "https://dkxm8.com/data/file/main/1728182447_QcnTeIFH_0a739c6f36625adfb98eaf3a587ca55cfd12462b.jpg",
    "area": "오창",
    "region": "대전/충청"
  },
  {
    "title": "[휴게텔] 크림",
    "url": "https://dkxm8.com/profile_popup.php?idx=648257&gubun=1",
    "description": "오창태국♥NF 수정.지아♥",
    "phone": "010-4408-6955",
    "kakao_id": "",
    "telegram_id": "",
    "hours": "PM 2:00 ~ AM 04:00",
    "thumbnail": "https://dkxm8.com/data/file/main/1728182447_7m5ctpHk_481c6374bd5cc5be4306e9e028fec1ef374a62c8.jpg",
    "area": "오창",
    "region": "대전/충청"
  },
  {
    "title": "[휴게텔] 여기어때",
    "url": "https://dkxm8.com/profile_popup.php?idx=649607&gubun=1",
    "description": "오창 힐링업소",
    "phone": "010-6448-5992",
    "kakao_id": "",
    "telegram_id": "",
    "hours": "PM 17:00 ~ AM 05:00",
    "thumbnail": "https://dkxm8.com/data/file/main/1728182871_Xl3GKnfQ_8ca7690892422cb2f5ad8ab67c66644b43cde1ec.gif",
    "area": "오창",
    "region": "대전/충청"
  },
  {
    "title": "[건마] 압구정스웨디시",
    "url": "https://dkxm8.com/profile_popup.php?idx=650489&gubun=1",
    "description": "❤️하드스웨디시&전통마사지❤️",
    "phone": "010-5944-5536",
    "kakao_id": "",
    "telegram_id": "",
    "hours": "❤️재방률,마인드 최고❤️",
    "thumbnail": "https://dkxm8.com/data/file/main/1728182447_4ELevfx6_f0175bfbff1476991b20edc3cb30aa6e7308bc12.jpg",
    "area": "오창",
    "region": "대전/충청"
  },
  {
    "title": "[건마] 사탕스웨디시",
    "url": "https://dkxm8.com/profile_popup.php?idx=649600&gubun=1",
    "description": "❤️코코,미미❤️",
    "phone": "010-5947-7667",
    "kakao_id": "",
    "telegram_id": "",
    "hours": "❤️한국인 싸이즈 20대❤️",
    "thumbnail": "https://dkxm8.com/data/file/main/2699961655_MR0ilNtT_37b9e64fbb470834b8e99eb547a0ab5b2b76724f.jpg",
    "area": "오창",
    "region": "대전/충청"
  },
  {
    "title": "[휴게텔] 교복",
    "url": "https://dkxm8.com/profile_popup.php?idx=1265030&gubun=1",
    "description": "❤️오창❤️홈플러스 부근❤️",
    "phone": "010-8156-2880",
    "kakao_id": "",
    "telegram_id": "",
    "hours": "PM 01:00~AM 05:00",
    "thumbnail": "https://dkxm8.com/data/file/main/1332623107_IUVjPpoM_89bf16225658ad637f456e6be06934508f0c1cff.jpg",
    "area": "오창",
    "region": "대전/충청"
  },
  {
    "title": "[건마] 꿀",
    "url": "https://dkxm8.com/profile_popup.php?idx=992414&gubun=1",
    "description": "음성,진천",
    "phone": "010 2392 1978",
    "kakao_id": "",
    "telegram_id": "",
    "hours": "24시간",
    "thumbnail": "https://dkxm8.com/data/file/main/1332623111_STkEXe58_fd7ed45bb7f0041e0ca53daa91c478d5f8b63352.jpg",
    "area": "음성",
    "region": "대전/충청"
  },
  {
    "title": "[건마] 꿀",
    "url": "https://dkxm8.com/profile_popup.php?idx=992414&gubun=1",
    "description": "음성,진천",
    "phone": "010 2392 1978",
    "kakao_id": "",
    "telegram_id": "",
    "hours": "24시간",
    "thumbnail": "https://dkxm8.com/data/file/main/1332623111_STkEXe58_fd7ed45bb7f0041e0ca53daa91c478d5f8b63352.jpg",
    "area": "음성",
    "region": "대전/충청"
  },
  {
    "title": "[건마] 오송1인샵",
    "url": "https://dkxm8.com/profile_popup.php?idx=1022129&gubun=1",
    "description": "❤️20대 싸이즈 한국인❤️",
    "phone": "010-3494-7667",
    "kakao_id": "",
    "telegram_id": "",
    "hours": "AM 11:00 ~ AM 05:00",
    "thumbnail": "https://dkxm8.com/data/file/main/1728182871_GPiX0AtM_1f6f3bb9f7145ce0c93713c559ea634c9b1a5811.jpg",
    "area": "오송",
    "region": "대전/충청"
  },
  {
    "title": "[건마] 청담스웨디시",
    "url": "https://dkxm8.com/profile_popup.php?idx=1360205&gubun=1",
    "description": "한국 전원20대 오송/조치원",
    "phone": "010-3988-3357단체환영",
    "kakao_id": "",
    "telegram_id": "",
    "hours": "오송역먹자골목 NF대거영입",
    "thumbnail": "https://dkxm8.com/data/file/main/2669311878_9qkebNE0_25955ed522fc634cbaa80bbdefbaa0268e1e0b37.jpg",
    "area": "오송",
    "region": "대전/충청"
  },
  {
    "title": "[건마] 청담스웨디시",
    "url": "https://dkxm8.com/profile_popup.php?idx=1360205&gubun=1",
    "description": "한국 전원20대 오송/조치원",
    "phone": "010-3988-3357단체환영",
    "kakao_id": "",
    "telegram_id": "",
    "hours": "오송역먹자골목 NF대거영입",
    "thumbnail": "https://dkxm8.com/data/file/main/2669311878_9qkebNE0_25955ed522fc634cbaa80bbdefbaa0268e1e0b37.jpg",
    "area": "오송",
    "region": "대전/충청"
  },
  {
    "title": "[건마] 오송1인샵",
    "url": "https://dkxm8.com/profile_popup.php?idx=1022129&gubun=1",
    "description": "❤️20대 싸이즈 한국인❤️",
    "phone": "010-3494-7667",
    "kakao_id": "",
    "telegram_id": "",
    "hours": "AM 11:00 ~ AM 05:00",
    "thumbnail": "https://dkxm8.com/data/file/main/1728182871_GPiX0AtM_1f6f3bb9f7145ce0c93713c559ea634c9b1a5811.jpg",
    "area": "오송",
    "region": "대전/충청"
  }
]