[
  {
    "title": "[휴게텔] 세탁소",
    "url": "https://dkxm8.com/profile_popup.php?idx=648425&gubun=1",
    "area": "대전",
    "region": "대전/충청",
    "thumbnail": "https://dkxm8.com/img/temp_thum.jpg",
    "description": "",
    "phone": "010-3440-8920",
    "hours": "운영시간: 낮 1시부터 새벽 5시까지",
    "kakao_id": "",
    "telegram_id": ""
  },
  {
    "title": "[유흥주점] 안석구실장",
    "url": "https://dkxm8.com/profile_popup.php?idx=648437&gubun=1",
    "area": "대전",
    "region": "대전/충청",
    "thumbnail": "https://dkxm8.com/img/temp_thum.jpg",
    "description": "",
    "phone": "010-7591-5950",
    "hours": "",
    "kakao_id": "",
    "telegram_id": ""
  },
  {
    "title": "[오피스텔] 유앤미",
    "url": "https://dkxm8.com/profile_popup.php?idx=648446&gubun=1",
    "area": "대전",
    "region": "대전/충청",
    "thumbnail": "https://dkxm8.com/img/temp_thum.jpg",
    "description": "⭐⭐010-8296-4961⭐⭐",
    "phone": "010-8296-4961",
    "hours": "",
    "kakao_id": "",
    "telegram_id": ""
  },
  {
    "title": "[휴게텔] S스웨텔",
    "url": "https://dkxm8.com/profile_popup.php?idx=648579&gubun=1",
    "area": "대전",
    "region": "대전/충청",
    "thumbnail": "https://dkxm8.com/img/temp_thum.jpg",
    "description": "비흡연 해주시면 더 사랑해요♥️",
    "phone": "010-4996-1945",
    "hours": "",
    "kakao_id": "",
    "telegram_id": "https://t.me/Scallcenter"
  },
  {
    "title": "[건마] 후궁",
    "url": "https://dkxm8.com/profile_popup.php?idx=1054093&gubun=1",
    "area": "대전",
    "region": "대전/충청",
    "thumbnail": "https://dkxm8.com/img/temp_thum.jpg",
    "description": "⭐010-3948-5477⭐",
    "phone": "010-3948-5477",
    "hours": "✔  주간 18시까지 1만원 할인 ✔",
    "kakao_id": "",
    "telegram_id": ""
  },
  {
    "title": "[건마] S스웨디시",
    "url": "https://dkxm8.com/profile_popup.php?idx=531333&gubun=1",
    "area": "대전",
    "region": "대전/충청",
    "thumbnail": "https://dkxm8.com/img/temp_thum.jpg",
    "description": "1인실 오피형 한국 하드 스웨디시",
    "phone": "010-4996-1945",
    "hours": "",
    "kakao_id": "",
    "telegram_id": "https://t.me/Scallcenter"
  },
  {
    "title": "[휴게텔] 굿나잇",
    "url": "https://dkxm8.com/profile_popup.php?idx=1303954&gubun=1",
    "area": "대전",
    "region": "대전/충청",
    "thumbnail": "https://dkxm8.com/img/temp_thum.jpg",
    "description": "",
    "phone": "010-5922-7795",
    "hours": "",
    "kakao_id": "",
    "telegram_id": ""
  },
  {
    "title": "[안마] 스타",
    "url": "https://dkxm8.com/profile_popup.php?idx=349803&gubun=1",
    "area": "대전",
    "region": "대전/충청",
    "thumbnail": "https://dkxm8.com/img/temp_thum.jpg",
    "description": "❤️NF맛집❤️24시영업❤️유성❤️카드가능❤️단체가능❤️재방1위❤️",
    "phone": "010-6587-2756",
    "hours": "❤️NF맛집❤️24시영업❤️유성❤️카드가능❤️단체가능❤️재방1위❤️",
    "kakao_id": "",
    "telegram_id": ""
  },
  {
    "title": "[오피] 초콜렛",
    "url": "https://dkxm8.com/profile_popup.php?idx=648690&gubun=1",
    "area": "대전",
    "region": "대전/충청",
    "thumbnail": "https://dkxm8.com/img/temp_thum.jpg",
    "description": "진짜정직한가격 3만원할인받는 기분 가성비 짱!!대전 복합터미널인근!!",
    "phone": "010-8209-1852",
    "hours": "",
    "kakao_id": "",
    "telegram_id": ""
  },
  {
    "title": "[건마] 홍콩중국마사지",
    "url": "https://dkxm8.com/profile_popup.php?idx=943695&gubun=1",
    "area": "대전",
    "region": "대전/충청",
    "thumbnail": "https://dkxm8.com/img/temp_thum.jpg",
    "description": "▓█▇▅▂❤️매력 뿜뿜 ❤️▂▅▇█▓ ⭐최상의 서비스와 마인드⭐️내상제",
    "phone": "010-2407-5643",
    "hours": "",
    "kakao_id": "",
    "telegram_id": ""
  },
  {
    "title": "[휴게텔] 라이프",
    "url": "https://dkxm8.com/profile_popup.php?idx=648459&gubun=1",
    "area": "대전",
    "region": "대전/충청",
    "thumbnail": "https://dkxm8.com/img/temp_thum.jpg",
    "description": "❤️❤️010-3025-7913❤️",
    "phone": "010-3025-7913",
    "hours": "",
    "kakao_id": "",
    "telegram_id": ""
  },
  {
    "title": "[건마] 촉촉 1인샵",
    "url": "https://dkxm8.com/profile_popup.php?idx=1169466&gubun=1",
    "area": "대전",
    "region": "대전/충청",
    "thumbnail": "https://dkxm8.com/img/temp_thum.jpg",
    "description": "",
    "phone": "010-6553-2560",
    "hours": "",
    "kakao_id": "",
    "telegram_id": ""
  },
  {
    "title": "[건마] 압구정스웨디시",
    "url": "https://dkxm8.com/profile_popup.php?idx=1108819&gubun=1",
    "area": "대전",
    "region": "대전/충청",
    "thumbnail": "https://dkxm8.com/img/temp_thum.jpg",
    "description": "♥ 8월 23일 토요일 정상 영업 중 입니다 ♥",
    "phone": "010-6553-2560",
    "hours": "",
    "kakao_id": "",
    "telegram_id": ""
  },
  {
    "title": "[건마] 밀크밀크마사지",
    "url": "https://dkxm8.com/profile_popup.php?idx=1227811&gubun=1",
    "area": "대전",
    "region": "대전/충청",
    "thumbnail": "https://dkxm8.com/img/temp_thum.jpg",
    "description": "❤️ 이쁜와꾸 ❤️내상제로❤️ 특급서비스❤️ 예약가능❤️",
    "phone": "010-2360-2687",
    "hours": "",
    "kakao_id": "",
    "telegram_id": ""
  },
  {
    "title": "[건마] 시녀1인샵",
    "url": "https://dkxm8.com/profile_popup.php?idx=1037922&gubun=1",
    "area": "대전",
    "region": "대전/충청",
    "thumbnail": "https://dkxm8.com/img/temp_thum.jpg",
    "description": "❤️남의여자가 더맛있는법❤️주체할수없는 배덕감❤️그녀의스킬❤️",
    "phone": "010-8405-5883",
    "hours": "❤OPNE12:00~04:00CLOSE❤",
    "kakao_id": "",
    "telegram_id": ""
  },
  {
    "title": "[건마] 포유1인샵",
    "url": "https://dkxm8.com/profile_popup.php?idx=1340215&gubun=1",
    "area": "대전",
    "region": "대전/충청",
    "thumbnail": "https://dkxm8.com/img/temp_thum.jpg",
    "description": "♥민정♥ 12:00~01:00 [출근]",
    "phone": "010 8242 8555",
    "hours": "24시간 시간상관없이 연락주세요 : )",
    "kakao_id": "",
    "telegram_id": ""
  },
  {
    "title": "[건마] X고트1인샵",
    "url": "https://dkxm8.com/profile_popup.php?idx=1203589&gubun=1",
    "area": "대전",
    "region": "대전/충청",
    "thumbnail": "https://dkxm8.com/img/temp_thum.jpg",
    "description": "❤️남의여자판타지❤️배덕감에미칠것같다❤️목구멍깊숙히삼키기❤️",
    "phone": "010-8405-5883",
    "hours": "❤OPNE11:00~05:00CLOSE❤",
    "kakao_id": "",
    "telegram_id": ""
  },
  {
    "title": "[건마] 버블스웨디시",
    "url": "https://dkxm8.com/profile_popup.php?idx=649342&gubun=1",
    "area": "대전",
    "region": "대전/충청",
    "thumbnail": "https://dkxm8.com/img/temp_thum.jpg",
    "description": "둔산동 핫플에서 일할 매니저 연락 주세용 !!!❤️",
    "phone": "010-8031-3663",
    "hours": "☀️단비 12:00~☀️",
    "kakao_id": "",
    "telegram_id": ""
  },
  {
    "title": "[건마] 바디딸딸이",
    "url": "https://dkxm8.com/profile_popup.php?idx=648869&gubun=1",
    "area": "대전",
    "region": "대전/충청",
    "thumbnail": "https://dkxm8.com/img/temp_thum.jpg",
    "description": "♥♥출근부^^NF슬림와꾸 미양 NF엔니.NF스타NF로즈.NF입국자미나.하니.제니.다나.",
    "phone": "010-2187-8473",
    "hours": "",
    "kakao_id": "",
    "telegram_id": ""
  },
  {
    "title": "[휴게텔] 우영미",
    "url": "https://dkxm8.com/profile_popup.php?idx=1322808&gubun=1",
    "area": "대전",
    "region": "대전/충청",
    "thumbnail": "https://dkxm8.com/img/temp_thum.jpg",
    "description": "❤️010-7541-8368❤️",
    "phone": "010-7541-8368",
    "hours": "",
    "kakao_id": "",
    "telegram_id": ""
  }
]