[
  {
    "title": "[오피스텔] 미슐랭",
    "url": "https://dkxm8.com/profile_popup.php?idx=648319&gubun=1",
    "area": "청주",
    "region": "대전/충청",
    "thumbnail": "https://dkxm8.com/img/temp_thum.jpg",
    "description": "⭐010-8357-2334⭐",
    "phone": "010-8357-2334",
    "hours": "",
    "kakao_id": "",
    "telegram_id": ""
  },
  {
    "title": "[휴게텔] 미인도",
    "url": "https://dkxm8.com/profile_popup.php?idx=1040200&gubun=1",
    "area": "청주",
    "region": "대전/충청",
    "thumbnail": "https://dkxm8.com/img/temp_thum.jpg",
    "description": "♥청주 신규오픈 하드코어 휴게텔 ♥",
    "phone": "010-5795-3815",
    "hours": "",
    "kakao_id": "",
    "telegram_id": ""
  },
  {
    "title": "[휴게텔] 옹달샘",
    "url": "https://dkxm8.com/profile_popup.php?idx=969055&gubun=1",
    "area": "청주",
    "region": "대전/충청",
    "thumbnail": "https://dkxm8.com/img/temp_thum.jpg",
    "description": "----------옹달샘 이벤트----------",
    "phone": "010-8341-2211",
    "hours": "※ 예약시간 : 12:00 PM ~ 5:00 AM ※",
    "kakao_id": "",
    "telegram_id": ""
  },
  {
    "title": "[휴게텔] 스프링",
    "url": "https://dkxm8.com/profile_popup.php?idx=968017&gubun=1",
    "area": "청주",
    "region": "대전/충청",
    "thumbnail": "https://dkxm8.com/img/temp_thum.jpg",
    "description": "",
    "phone": "010-6737-3021",
    "hours": "오후1시 ~ 새벽 4시",
    "kakao_id": "",
    "telegram_id": ""
  },
  {
    "title": "[휴게텔] 바카디",
    "url": "https://dkxm8.com/profile_popup.php?idx=648492&gubun=1",
    "area": "청주",
    "region": "대전/충청",
    "thumbnail": "https://dkxm8.com/img/temp_thum.jpg",
    "description": "❤️010-7315-5810❤️",
    "phone": "010-7315-5810",
    "hours": "",
    "kakao_id": "",
    "telegram_id": ""
  },
  {
    "title": "[건마] 디올스웨디시",
    "url": "https://dkxm8.com/profile_popup.php?idx=1317936&gubun=1",
    "area": "청주",
    "region": "대전/충청",
    "thumbnail": "https://dkxm8.com/img/temp_thum.jpg",
    "description": "율량동❤️사이즈미쳤다❤️즐달의성지❤️Ⓜ️청주1등Ⓜ️",
    "phone": "010-4869-6779",
    "hours": "취소는최소1시간전에 말씀주세요",
    "kakao_id": "",
    "telegram_id": ""
  },
  {
    "title": "[휴게텔] 싸요싸요",
    "url": "https://dkxm8.com/profile_popup.php?idx=1080389&gubun=1",
    "area": "청주",
    "region": "대전/충청",
    "thumbnail": "https://dkxm8.com/img/temp_thum.jpg",
    "description": "신규업소 리얼영계 여신 출근대기",
    "phone": "010-9671-3375",
    "hours": "",
    "kakao_id": "",
    "telegram_id": ""
  },
  {
    "title": "[건마] 뀨 1인샵",
    "url": "https://dkxm8.com/profile_popup.php?idx=1036746&gubun=1",
    "area": "청주",
    "region": "대전/충청",
    "thumbnail": "https://dkxm8.com/img/temp_thum.jpg",
    "description": "업계 순수 업초!! 후회없는 선택이될것입니다❤️",
    "phone": "010-9640-7222",
    "hours": "Open 오전11시부터",
    "kakao_id": "",
    "telegram_id": ""
  },
  {
    "title": "[건마] 반하니1인샵",
    "url": "https://dkxm8.com/profile_popup.php?idx=1311194&gubun=1",
    "area": "청주",
    "region": "대전/충청",
    "thumbnail": "https://dkxm8.com/img/temp_thum.jpg",
    "description": "⭐010-2391-5291⭐",
    "phone": "010-2391-5291",
    "hours": "영업 시간 : <15시~22시>",
    "kakao_id": "",
    "telegram_id": ""
  },
  {
    "title": "[건마] 생크림",
    "url": "https://dkxm8.com/profile_popup.php?idx=648487&gubun=1",
    "area": "청주",
    "region": "대전/충청",
    "thumbnail": "https://dkxm8.com/img/temp_thum.jpg",
    "description": "전원 한국!!! 1인1실 OP형!!",
    "phone": "010-7361-0353",
    "hours": "♡NF진나♡ 주간12시~야간11시",
    "kakao_id": "",
    "telegram_id": ""
  },
  {
    "title": "[건마] 하루1인샵",
    "url": "https://dkxm8.com/profile_popup.php?idx=1306677&gubun=1",
    "area": "청주",
    "region": "대전/충청",
    "thumbnail": "https://dkxm8.com/img/temp_thum.jpg",
    "description": "❤️ 큐티, 섹시, 러블리 ❤️ 하루방에 놀러와요 ❤️",
    "phone": "010-5763-9685",
    "hours": "오전 10시부터 예약 가능 합니다.",
    "kakao_id": "",
    "telegram_id": ""
  },
  {
    "title": "[건마] 치어리더1인샵",
    "url": "https://dkxm8.com/profile_popup.php?idx=1338704&gubun=1",
    "area": "청주",
    "region": "대전/충청",
    "thumbnail": "https://dkxm8.com/img/temp_thum.jpg",
    "description": "✅010-6873-8894✅",
    "phone": "010-6873-8894",
    "hours": "",
    "kakao_id": "",
    "telegram_id": ""
  },
  {
    "title": "[건마] 임하영1인샵",
    "url": "https://dkxm8.com/profile_popup.php?idx=1344926&gubun=1",
    "area": "청주",
    "region": "대전/충청",
    "thumbnail": "https://dkxm8.com/img/temp_thum.jpg",
    "description": "❤️010 5933 6982❤️",
    "phone": "010 5933 6982",
    "hours": "오후 11시 00분부터 예약 받습니다.",
    "kakao_id": "",
    "telegram_id": ""
  },
  {
    "title": "[립카페] 데이트",
    "url": "https://dkxm8.com/profile_popup.php?idx=698516&gubun=1",
    "area": "청주",
    "region": "대전/충청",
    "thumbnail": "https://dkxm8.com/img/temp_thum.jpg",
    "description": "★NF진주 (25살.157cm.55kg.C+ cup) 주간12시-야간11시",
    "phone": "",
    "hours": "★NF진주 (25살.157cm.55kg.C+ cup) 주간12시-야간11시",
    "kakao_id": "",
    "telegram_id": ""
  },
  {
    "title": "[건마] 언니네1인샵",
    "url": "https://dkxm8.com/profile_popup.php?idx=1187431&gubun=1",
    "area": "청주",
    "region": "대전/충청",
    "thumbnail": "https://dkxm8.com/img/temp_thum.jpg",
    "description": "⭐️  ⭐️｡ﾟ 전화번호 ﾟ｡⭐️ ⭐️",
    "phone": "010-5768-4571",
    "hours": "초롱언니-PM:12시~출근",
    "kakao_id": "",
    "telegram_id": ""
  },
  {
    "title": "[오피] 냠냠",
    "url": "https://dkxm8.com/profile_popup.php?idx=648506&gubun=1",
    "area": "청주",
    "region": "대전/충청",
    "thumbnail": "https://dkxm8.com/img/temp_thum.jpg",
    "description": "✴️010-6465-0663❤️✴️",
    "phone": "010-6465-0663",
    "hours": "24시간 시간상관없이 연락주세요 : )",
    "kakao_id": "",
    "telegram_id": ""
  },
  {
    "title": "[휴게텔] 마카롱",
    "url": "https://dkxm8.com/profile_popup.php?idx=1286485&gubun=1",
    "area": "청주",
    "region": "대전/충청",
    "thumbnail": "https://dkxm8.com/img/temp_thum.jpg",
    "description": "",
    "phone": "010-8438-0048",
    "hours": "OPEN   12:00 AM",
    "kakao_id": "",
    "telegram_id": ""
  },
  {
    "title": "[휴게텔] 미인도",
    "url": "https://dkxm8.com/profile_popup.php?idx=1040200&gubun=1",
    "area": "청주",
    "region": "대전/충청",
    "thumbnail": "https://dkxm8.com/img/temp_thum.jpg",
    "description": "♥청주 신규오픈 하드코어 휴게텔 ♥",
    "phone": "010-5795-3815",
    "hours": "",
    "kakao_id": "",
    "telegram_id": ""
  },
  {
    "title": "[건마] 맥심",
    "url": "https://dkxm8.com/profile_popup.php?idx=1166076&gubun=1",
    "area": "청주",
    "region": "대전/충청",
    "thumbnail": "https://dkxm8.com/img/temp_thum.jpg",
    "description": "❤️가인(10월 13일 pm3:00~)-비흡연. 타투ㅇ (카리나삘)",
    "phone": "010-5594-1084",
    "hours": "❤️가인(10월 13일 pm3:00~)-비흡연. 타투ㅇ (카리나삘)",
    "kakao_id": "",
    "telegram_id": ""
  },
  {
    "title": "[건마] 낭만",
    "url": "https://dkxm8.com/profile_popup.php?idx=1346781&gubun=1",
    "area": "청주",
    "region": "대전/충청",
    "thumbnail": "https://dkxm8.com/img/temp_thum.jpg",
    "description": "",
    "phone": "010-5961-1254",
    "hours": "",
    "kakao_id": "",
    "telegram_id": ""
  },
  {
    "title": "[건마] 지웰휴",
    "url": "https://dkxm8.com/profile_popup.php?idx=991605&gubun=1",
    "area": "청주",
    "region": "대전/충청",
    "thumbnail": "https://dkxm8.com/img/temp_thum.jpg",
    "description": "",
    "phone": "010-8969-4956",
    "hours": "",
    "kakao_id": "",
    "telegram_id": ""
  },
  {
    "title": "[건마] 색기녀",
    "url": "https://dkxm8.com/profile_popup.php?idx=1324967&gubun=1",
    "area": "청주",
    "region": "대전/충청",
    "thumbnail": "https://dkxm8.com/img/temp_thum.jpg",
    "description": "후기할인이벤트 진행중 정성스러운 후기 큰 힘이됩니다 !",
    "phone": "010-5521-7727",
    "hours": "✔색끼녀 10:00 부터 전화 또는 문자 예약가능✔",
    "kakao_id": "",
    "telegram_id": ""
  },
  {
    "title": "[오피] 청주여대",
    "url": "https://dkxm8.com/profile_popup.php?idx=1234220&gubun=1",
    "area": "청주",
    "region": "대전/충청",
    "thumbnail": "https://dkxm8.com/img/temp_thum.jpg",
    "description": "❤️청주1번 와꾸 사이즈 마인드❤️",
    "phone": "010-5901-2084",
    "hours": "",
    "kakao_id": "",
    "telegram_id": ""
  },
  {
    "title": "[건마] 벤츠스웨디시",
    "url": "https://dkxm8.com/profile_popup.php?idx=1294188&gubun=1",
    "area": "청주",
    "region": "대전/충청",
    "thumbnail": "https://dkxm8.com/img/temp_thum.jpg",
    "description": "벤츠 스웨디시랑 함께할 관리사를 찾습니다❤️",
    "phone": "010-7621-4430",
    "hours": "취소는최소1시간전에 말씀주세요",
    "kakao_id": "",
    "telegram_id": ""
  },
  {
    "title": "[오피] 아쿠아",
    "url": "https://dkxm8.com/profile_popup.php?idx=1084438&gubun=1",
    "area": "청주",
    "region": "대전/충청",
    "thumbnail": "https://dkxm8.com/img/temp_thum.jpg",
    "description": "⭐ 010-7294-3316⭐",
    "phone": "010-7294-3316",
    "hours": "",
    "kakao_id": "",
    "telegram_id": ""
  },
  {
    "title": "[오피] 미슐랭",
    "url": "https://dkxm8.com/profile_popup.php?idx=648319&gubun=1",
    "area": "청주",
    "region": "대전/충청",
    "thumbnail": "https://dkxm8.com/img/temp_thum.jpg",
    "description": "⭐010-8357-2334⭐",
    "phone": "010-8357-2334",
    "hours": "",
    "kakao_id": "",
    "telegram_id": ""
  },
  {
    "title": "[건마] MSG1인샵",
    "url": "https://dkxm8.com/profile_popup.php?idx=766135&gubun=1",
    "area": "청주",
    "region": "대전/충청",
    "thumbnail": "https://dkxm8.com/img/temp_thum.jpg",
    "description": "⎝⎝✨ 010-3297-6111✨⎠⎠",
    "phone": "010-3297-6111",
    "hours": "NF⭐️ 지현 ⭐ 오후7시출근",
    "kakao_id": "",
    "telegram_id": ""
  },
  {
    "title": "[건마] 미시클럽",
    "url": "https://dkxm8.com/profile_popup.php?idx=648358&gubun=1",
    "area": "청주",
    "region": "대전/충청",
    "thumbnail": "https://dkxm8.com/img/temp_thum.jpg",
    "description": "(얼굴밑으로만 때려주세용....)+ NF맞고꼬집고  PM12:00~AM12:00",
    "phone": "010 3972 2112",
    "hours": "(얼굴밑으로만 때려주세용....)+ NF맞고꼬집고  PM12:00~AM12:00",
    "kakao_id": "",
    "telegram_id": ""
  },
  {
    "title": "[휴게텔] 낼름낼름",
    "url": "https://dkxm8.com/profile_popup.php?idx=995987&gubun=1",
    "area": "청주",
    "region": "대전/충청",
    "thumbnail": "https://dkxm8.com/img/temp_thum.jpg",
    "description": "❤️ 청주 유일 전원 베트남 ❤️",
    "phone": "010-2274-1915",
    "hours": "오후 12시부터 가능합니다!!",
    "kakao_id": "",
    "telegram_id": ""
  },
  {
    "title": "[건마] 버블아로마",
    "url": "https://dkxm8.com/profile_popup.php?idx=1242236&gubun=1",
    "area": "청주",
    "region": "대전/충청",
    "thumbnail": "https://dkxm8.com/img/temp_thum.jpg",
    "description": "",
    "phone": "010-8879-8929",
    "hours": "",
    "kakao_id": "",
    "telegram_id": ""
  },
  {
    "title": "[건마] Feel",
    "url": "https://dkxm8.com/profile_popup.php?idx=1169880&gubun=1",
    "area": "청주",
    "region": "대전/충청",
    "thumbnail": "https://dkxm8.com/img/temp_thum.jpg",
    "description": "010-5507-6659❤️",
    "phone": "010-5507-6659",
    "hours": "",
    "kakao_id": "",
    "telegram_id": ""
  },
  {
    "title": "[오피] 차칸가게",
    "url": "https://dkxm8.com/profile_popup.php?idx=1093322&gubun=1",
    "area": "청주",
    "region": "대전/충청",
    "thumbnail": "https://dkxm8.com/img/temp_thum.jpg",
    "description": "✅️010-7970-6635✅️",
    "phone": "010-7970-6635",
    "hours": "",
    "kakao_id": "",
    "telegram_id": "https://t.me/+6I2UBuyEgDAxZmI1"
  },
  {
    "title": "[립카페] 아이스크림",
    "url": "https://dkxm8.com/profile_popup.php?idx=648516&gubun=1",
    "area": "청주",
    "region": "대전/충청",
    "thumbnail": "https://dkxm8.com/img/temp_thum.jpg",
    "description": "⭐ 010-4695-2836⭐",
    "phone": "010-4695-2836",
    "hours": "",
    "kakao_id": "",
    "telegram_id": ""
  },
  {
    "title": "[오피] 블링블링",
    "url": "https://dkxm8.com/profile_popup.php?idx=182896&gubun=1",
    "area": "청주",
    "region": "대전/충청",
    "thumbnail": "https://dkxm8.com/img/temp_thum.jpg",
    "description": "✅ 010-6453-2299 ✅",
    "phone": "010-6453-2299",
    "hours": "",
    "kakao_id": "",
    "telegram_id": ""
  },
  {
    "title": "[건마] 러블리스웨디시",
    "url": "https://dkxm8.com/profile_popup.php?idx=1281923&gubun=1",
    "area": "청주",
    "region": "대전/충청",
    "thumbnail": "https://dkxm8.com/img/temp_thum.jpg",
    "description": "♥010-4649-7062♥",
    "phone": "010-4649-7062",
    "hours": "♥애라♥ PM 15:00~",
    "kakao_id": "",
    "telegram_id": ""
  },
  {
    "title": "[건마] 쿵떡쿵떡",
    "url": "https://dkxm8.com/profile_popup.php?idx=1206440&gubun=1",
    "area": "청주",
    "region": "대전/충청",
    "thumbnail": "https://dkxm8.com/img/temp_thum.jpg",
    "description": "",
    "phone": "010-8180-0304",
    "hours": "",
    "kakao_id": "",
    "telegram_id": ""
  },
  {
    "title": "[건마] 앙큼한스웨디시",
    "url": "https://dkxm8.com/profile_popup.php?idx=1119461&gubun=1",
    "area": "청주",
    "region": "대전/충청",
    "thumbnail": "https://dkxm8.com/img/temp_thum.jpg",
    "description": "강서터미널 1분 한국인 하드",
    "phone": "",
    "hours": "",
    "kakao_id": "",
    "telegram_id": ""
  },
  {
    "title": "[오피] 사쿠라",
    "url": "https://dkxm8.com/profile_popup.php?idx=1354024&gubun=1",
    "area": "청주",
    "region": "대전/충청",
    "thumbnail": "https://dkxm8.com/img/temp_thum.jpg",
    "description": "",
    "phone": "010-2660-7465",
    "hours": "",
    "kakao_id": "",
    "telegram_id": "https://t.me/tt1633hh"
  },
  {
    "title": "[건마] 한소율1인샵",
    "url": "https://dkxm8.com/profile_popup.php?idx=1349315&gubun=1",
    "area": "청주",
    "region": "대전/충청",
    "thumbnail": "https://dkxm8.com/img/temp_thum.jpg",
    "description": "",
    "phone": "010-2116-6984",
    "hours": "오전10:00부터 마감까지 전화예약가능합니다.",
    "kakao_id": "",
    "telegram_id": ""
  },
  {
    "title": "[건마] 아방궁",
    "url": "https://dkxm8.com/profile_popup.php?idx=1117051&gubun=1",
    "area": "청주",
    "region": "대전/충청",
    "thumbnail": "https://dkxm8.com/img/temp_thum.jpg",
    "description": "",
    "phone": "010-5844-7998",
    "hours": "청주24시영업!핑보!69보빨 맛집!!",
    "kakao_id": "",
    "telegram_id": ""
  }
]