[
  {
    "title": "[오피스텔] 미슐랭",
    "url": "https://dkxm8.com/profile_popup.php?idx=648319&gubun=1",
    "area": "청주",
    "region": "대전/충청",
    "thumbnail": "https://dkxm8.com/img/temp_thum.jpg",
    "description": "⭐010-8357-2334⭐",
    "phone": "010-8357-2334",
    "hours": "",
    "kakao_id": "",
    "telegram_id": ""
  },
  {
    "title": "[휴게텔] 미인도",
    "url": "https://dkxm8.com/profile_popup.php?idx=1040200&gubun=1",
    "area": "청주",
    "region": "대전/충청",
    "thumbnail": "https://dkxm8.com/img/temp_thum.jpg",
    "description": "♥청주 신규오픈 하드코어 휴게텔 ♥",
    "phone": "010-5795-3815",
    "hours": "",
    "kakao_id": "",
    "telegram_id": ""
  },
  {
    "title": "[휴게텔] 옹달샘",
    "url": "https://dkxm8.com/profile_popup.php?idx=969055&gubun=1",
    "area": "청주",
    "region": "대전/충청",
    "thumbnail": "https://dkxm8.com/img/temp_thum.jpg",
    "description": "----------옹달샘 이벤트----------",
    "phone": "010-8341-2211",
    "hours": "※ 예약시간 : 12:00 PM ~ 5:00 AM ※",
    "kakao_id": "",
    "telegram_id": ""
  },
  {
    "title": "[휴게텔] 스프링",
    "url": "https://dkxm8.com/profile_popup.php?idx=968017&gubun=1",
    "area": "청주",
    "region": "대전/충청",
    "thumbnail": "https://dkxm8.com/img/temp_thum.jpg",
    "description": "",
    "phone": "010-6737-3021",
    "hours": "오후1시 ~ 새벽 4시",
    "kakao_id": "",
    "telegram_id": ""
  },
  {
    "title": "[휴게텔] 바카디",
    "url": "https://dkxm8.com/profile_popup.php?idx=648492&gubun=1",
    "area": "청주",
    "region": "대전/충청",
    "thumbnail": "https://dkxm8.com/img/temp_thum.jpg",
    "description": "❤️010-7315-5810❤️",
    "phone": "010-7315-5810",
    "hours": "",
    "kakao_id": "",
    "telegram_id": ""
  },
  {
    "title": "[건마] 디올스웨디시",
    "url": "https://dkxm8.com/profile_popup.php?idx=1317936&gubun=1",
    "area": "청주",
    "region": "대전/충청",
    "thumbnail": "https://dkxm8.com/img/temp_thum.jpg",
    "description": "율량동❤️사이즈미쳤다❤️즐달의성지❤️Ⓜ️청주1등Ⓜ️",
    "phone": "010-4869-6779",
    "hours": "취소는최소1시간전에 말씀주세요",
    "kakao_id": "",
    "telegram_id": ""
  },
  {
    "title": "[휴게텔] 싸요싸요",
    "url": "https://dkxm8.com/profile_popup.php?idx=1080389&gubun=1",
    "area": "청주",
    "region": "대전/충청",
    "thumbnail": "https://dkxm8.com/img/temp_thum.jpg",
    "description": "신규업소 리얼영계 여신 출근대기",
    "phone": "010-9671-3375",
    "hours": "",
    "kakao_id": "",
    "telegram_id": ""
  },
  {
    "title": "[건마] 뀨 1인샵",
    "url": "https://dkxm8.com/profile_popup.php?idx=1036746&gubun=1",
    "area": "청주",
    "region": "대전/충청",
    "thumbnail": "https://dkxm8.com/img/temp_thum.jpg",
    "description": "업계 순수 업초!! 후회없는 선택이될것입니다❤️",
    "phone": "010-9640-7222",
    "hours": "Open 오전11시부터",
    "kakao_id": "",
    "telegram_id": ""
  },
  {
    "title": "[건마] 반하니1인샵",
    "url": "https://dkxm8.com/profile_popup.php?idx=1311194&gubun=1",
    "area": "청주",
    "region": "대전/충청",
    "thumbnail": "https://dkxm8.com/img/temp_thum.jpg",
    "description": "⭐010-2391-5291⭐",
    "phone": "010-2391-5291",
    "hours": "영업 시간 : <15시~22시>",
    "kakao_id": "",
    "telegram_id": ""
  },
  {
    "title": "[건마] 생크림",
    "url": "https://dkxm8.com/profile_popup.php?idx=648487&gubun=1",
    "area": "청주",
    "region": "대전/충청",
    "thumbnail": "https://dkxm8.com/img/temp_thum.jpg",
    "description": "전원 한국!!! 1인1실 OP형!!",
    "phone": "010-7361-0353",
    "hours": "♡NF진나♡ 주간12시~야간11시",
    "kakao_id": "",
    "telegram_id": ""
  }
]