[
  {
    "title": "[오피스텔] 미슐랭",
    "url": "https://dkxm8.com/profile_popup.php?idx=648319&gubun=1",
    "area": "청주",
    "region": "대전/충청",
    "thumbnail": "https://dkxm8.com/img/temp_thum.jpg",
    "description": "⭐010-8357-2334⭐",
    "phone": "010-8357-2334",
    "hours": "",
    "kakao_id": "",
    "telegram_id": ""
  },
  {
    "title": "[휴게텔] 미인도",
    "url": "https://dkxm8.com/profile_popup.php?idx=1040200&gubun=1",
    "area": "청주",
    "region": "대전/충청",
    "thumbnail": "https://dkxm8.com/img/temp_thum.jpg",
    "description": "♥청주 신규오픈 하드코어 휴게텔 ♥",
    "phone": "010-5795-3815",
    "hours": "",
    "kakao_id": "",
    "telegram_id": ""
  },
  {
    "title": "[휴게텔] 옹달샘",
    "url": "https://dkxm8.com/profile_popup.php?idx=969055&gubun=1",
    "area": "청주",
    "region": "대전/충청",
    "thumbnail": "https://dkxm8.com/img/temp_thum.jpg",
    "description": "----------옹달샘 이벤트----------",
    "phone": "010-8341-2211",
    "hours": "※ 예약시간 : 12:00 PM ~ 5:00 AM ※",
    "kakao_id": "",
    "telegram_id": ""
  },
  {
    "title": "[휴게텔] 스프링",
    "url": "https://dkxm8.com/profile_popup.php?idx=968017&gubun=1",
    "area": "청주",
    "region": "대전/충청",
    "thumbnail": "https://dkxm8.com/img/temp_thum.jpg",
    "description": "",
    "phone": "010-6737-3021",
    "hours": "오후1시 ~ 새벽 4시",
    "kakao_id": "",
    "telegram_id": ""
  },
  {
    "title": "[휴게텔] 바카디",
    "url": "https://dkxm8.com/profile_popup.php?idx=648492&gubun=1",
    "area": "청주",
    "region": "대전/충청",
    "thumbnail": "https://dkxm8.com/img/temp_thum.jpg",
    "description": "❤️010-7315-5810❤️",
    "phone": "010-7315-5810",
    "hours": "",
    "kakao_id": "",
    "telegram_id": ""
  },
  {
    "title": "[건마] 디올스웨디시",
    "url": "https://dkxm8.com/profile_popup.php?idx=1317936&gubun=1",
    "area": "청주",
    "region": "대전/충청",
    "thumbnail": "https://dkxm8.com/img/temp_thum.jpg",
    "description": "율량동❤️사이즈미쳤다❤️즐달의성지❤️Ⓜ️청주1등Ⓜ️",
    "phone": "010-4869-6779",
    "hours": "취소는최소1시간전에 말씀주세요",
    "kakao_id": "",
    "telegram_id": ""
  },
  {
    "title": "[휴게텔] 싸요싸요",
    "url": "https://dkxm8.com/profile_popup.php?idx=1080389&gubun=1",
    "area": "청주",
    "region": "대전/충청",
    "thumbnail": "https://dkxm8.com/img/temp_thum.jpg",
    "description": "신규업소 리얼영계 여신 출근대기",
    "phone": "010-9671-3375",
    "hours": "",
    "kakao_id": "",
    "telegram_id": ""
  },
  {
    "title": "[건마] 뀨 1인샵",
    "url": "https://dkxm8.com/profile_popup.php?idx=1036746&gubun=1",
    "area": "청주",
    "region": "대전/충청",
    "thumbnail": "https://dkxm8.com/img/temp_thum.jpg",
    "description": "업계 순수 업초!! 후회없는 선택이될것입니다❤️",
    "phone": "010-9640-7222",
    "hours": "Open 오전11시부터",
    "kakao_id": "",
    "telegram_id": ""
  },
  {
    "title": "[건마] 반하니1인샵",
    "url": "https://dkxm8.com/profile_popup.php?idx=1311194&gubun=1",
    "area": "청주",
    "region": "대전/충청",
    "thumbnail": "https://dkxm8.com/img/temp_thum.jpg",
    "description": "⭐010-2391-5291⭐",
    "phone": "010-2391-5291",
    "hours": "영업 시간 : <15시~22시>",
    "kakao_id": "",
    "telegram_id": ""
  },
  {
    "title": "[건마] 생크림",
    "url": "https://dkxm8.com/profile_popup.php?idx=648487&gubun=1",
    "area": "청주",
    "region": "대전/충청",
    "thumbnail": "https://dkxm8.com/img/temp_thum.jpg",
    "description": "전원 한국!!! 1인1실 OP형!!",
    "phone": "010-7361-0353",
    "hours": "♡NF진나♡ 주간12시~야간11시",
    "kakao_id": "",
    "telegram_id": ""
  },
  {
    "title": "[건마] 하루1인샵",
    "url": "https://dkxm8.com/profile_popup.php?idx=1306677&gubun=1",
    "area": "청주",
    "region": "대전/충청",
    "thumbnail": "https://dkxm8.com/img/temp_thum.jpg",
    "description": "❤️ 큐티, 섹시, 러블리 ❤️ 하루방에 놀러와요 ❤️",
    "phone": "010-5763-9685",
    "hours": "오전 10시부터 예약 가능 합니다.",
    "kakao_id": "",
    "telegram_id": ""
  },
  {
    "title": "[건마] 치어리더1인샵",
    "url": "https://dkxm8.com/profile_popup.php?idx=1338704&gubun=1",
    "area": "청주",
    "region": "대전/충청",
    "thumbnail": "https://dkxm8.com/img/temp_thum.jpg",
    "description": "✅010-6873-8894✅",
    "phone": "010-6873-8894",
    "hours": "",
    "kakao_id": "",
    "telegram_id": ""
  },
  {
    "title": "[건마] 임하영1인샵",
    "url": "https://dkxm8.com/profile_popup.php?idx=1344926&gubun=1",
    "area": "청주",
    "region": "대전/충청",
    "thumbnail": "https://dkxm8.com/img/temp_thum.jpg",
    "description": "❤️010 5933 6982❤️",
    "phone": "010 5933 6982",
    "hours": "오후 11시 00분부터 예약 받습니다.",
    "kakao_id": "",
    "telegram_id": ""
  },
  {
    "title": "[립카페] 데이트",
    "url": "https://dkxm8.com/profile_popup.php?idx=698516&gubun=1",
    "area": "청주",
    "region": "대전/충청",
    "thumbnail": "https://dkxm8.com/img/temp_thum.jpg",
    "description": "★NF진주 (25살.157cm.55kg.C+ cup) 주간12시-야간11시",
    "phone": "",
    "hours": "★NF진주 (25살.157cm.55kg.C+ cup) 주간12시-야간11시",
    "kakao_id": "",
    "telegram_id": ""
  },
  {
    "title": "[건마] 언니네1인샵",
    "url": "https://dkxm8.com/profile_popup.php?idx=1187431&gubun=1",
    "area": "청주",
    "region": "대전/충청",
    "thumbnail": "https://dkxm8.com/img/temp_thum.jpg",
    "description": "⭐️  ⭐️｡ﾟ 전화번호 ﾟ｡⭐️ ⭐️",
    "phone": "010-5768-4571",
    "hours": "초롱언니-PM:12시~출근",
    "kakao_id": "",
    "telegram_id": ""
  },
  {
    "title": "[오피] 냠냠",
    "url": "https://dkxm8.com/profile_popup.php?idx=648506&gubun=1",
    "area": "청주",
    "region": "대전/충청",
    "thumbnail": "https://dkxm8.com/img/temp_thum.jpg",
    "description": "✴️010-6465-0663❤️✴️",
    "phone": "010-6465-0663",
    "hours": "24시간 시간상관없이 연락주세요 : )",
    "kakao_id": "",
    "telegram_id": ""
  },
  {
    "title": "[휴게텔] 마카롱",
    "url": "https://dkxm8.com/profile_popup.php?idx=1286485&gubun=1",
    "area": "청주",
    "region": "대전/충청",
    "thumbnail": "https://dkxm8.com/img/temp_thum.jpg",
    "description": "",
    "phone": "010-8438-0048",
    "hours": "OPEN   12:00 AM",
    "kakao_id": "",
    "telegram_id": ""
  },
  {
    "title": "[휴게텔] 미인도",
    "url": "https://dkxm8.com/profile_popup.php?idx=1040200&gubun=1",
    "area": "청주",
    "region": "대전/충청",
    "thumbnail": "https://dkxm8.com/img/temp_thum.jpg",
    "description": "♥청주 신규오픈 하드코어 휴게텔 ♥",
    "phone": "010-5795-3815",
    "hours": "",
    "kakao_id": "",
    "telegram_id": ""
  },
  {
    "title": "[건마] 맥심",
    "url": "https://dkxm8.com/profile_popup.php?idx=1166076&gubun=1",
    "area": "청주",
    "region": "대전/충청",
    "thumbnail": "https://dkxm8.com/img/temp_thum.jpg",
    "description": "❤️가인(10월 13일 pm3:00~)-비흡연. 타투ㅇ (카리나삘)",
    "phone": "010-5594-1084",
    "hours": "❤️가인(10월 13일 pm3:00~)-비흡연. 타투ㅇ (카리나삘)",
    "kakao_id": "",
    "telegram_id": ""
  },
  {
    "title": "[건마] 낭만",
    "url": "https://dkxm8.com/profile_popup.php?idx=1346781&gubun=1",
    "area": "청주",
    "region": "대전/충청",
    "thumbnail": "https://dkxm8.com/img/temp_thum.jpg",
    "description": "",
    "phone": "010-5961-1254",
    "hours": "",
    "kakao_id": "",
    "telegram_id": ""
  },
  {
    "title": "[건마] 지웰휴",
    "url": "https://dkxm8.com/profile_popup.php?idx=991605&gubun=1",
    "area": "청주",
    "region": "대전/충청",
    "thumbnail": "https://dkxm8.com/img/temp_thum.jpg",
    "description": "",
    "phone": "010-8969-4956",
    "hours": "",
    "kakao_id": "",
    "telegram_id": ""
  },
  {
    "title": "[건마] 색기녀",
    "url": "https://dkxm8.com/profile_popup.php?idx=1324967&gubun=1",
    "area": "청주",
    "region": "대전/충청",
    "thumbnail": "https://dkxm8.com/img/temp_thum.jpg",
    "description": "후기할인이벤트 진행중 정성스러운 후기 큰 힘이됩니다 !",
    "phone": "010-5521-7727",
    "hours": "✔색끼녀 10:00 부터 전화 또는 문자 예약가능✔",
    "kakao_id": "",
    "telegram_id": ""
  },
  {
    "title": "[오피] 청주여대",
    "url": "https://dkxm8.com/profile_popup.php?idx=1234220&gubun=1",
    "area": "청주",
    "region": "대전/충청",
    "thumbnail": "https://dkxm8.com/img/temp_thum.jpg",
    "description": "❤️청주1번 와꾸 사이즈 마인드❤️",
    "phone": "010-5901-2084",
    "hours": "",
    "kakao_id": "",
    "telegram_id": ""
  },
  {
    "title": "[건마] 벤츠스웨디시",
    "url": "https://dkxm8.com/profile_popup.php?idx=1294188&gubun=1",
    "area": "청주",
    "region": "대전/충청",
    "thumbnail": "https://dkxm8.com/img/temp_thum.jpg",
    "description": "벤츠 스웨디시랑 함께할 관리사를 찾습니다❤️",
    "phone": "010-7621-4430",
    "hours": "취소는최소1시간전에 말씀주세요",
    "kakao_id": "",
    "telegram_id": ""
  },
  {
    "title": "[오피] 아쿠아",
    "url": "https://dkxm8.com/profile_popup.php?idx=1084438&gubun=1",
    "area": "청주",
    "region": "대전/충청",
    "thumbnail": "https://dkxm8.com/img/temp_thum.jpg",
    "description": "⭐ 010-7294-3316⭐",
    "phone": "010-7294-3316",
    "hours": "",
    "kakao_id": "",
    "telegram_id": ""
  },
  {
    "title": "[오피] 미슐랭",
    "url": "https://dkxm8.com/profile_popup.php?idx=648319&gubun=1",
    "area": "청주",
    "region": "대전/충청",
    "thumbnail": "https://dkxm8.com/img/temp_thum.jpg",
    "description": "⭐010-8357-2334⭐",
    "phone": "010-8357-2334",
    "hours": "",
    "kakao_id": "",
    "telegram_id": ""
  },
  {
    "title": "[건마] MSG1인샵",
    "url": "https://dkxm8.com/profile_popup.php?idx=766135&gubun=1",
    "area": "청주",
    "region": "대전/충청",
    "thumbnail": "https://dkxm8.com/img/temp_thum.jpg",
    "description": "⎝⎝✨ 010-3297-6111✨⎠⎠",
    "phone": "010-3297-6111",
    "hours": "NF⭐️ 지현 ⭐ 오후7시출근",
    "kakao_id": "",
    "telegram_id": ""
  },
  {
    "title": "[건마] 미시클럽",
    "url": "https://dkxm8.com/profile_popup.php?idx=648358&gubun=1",
    "area": "청주",
    "region": "대전/충청",
    "thumbnail": "https://dkxm8.com/img/temp_thum.jpg",
    "description": "(얼굴밑으로만 때려주세용....)+ NF맞고꼬집고  PM12:00~AM12:00",
    "phone": "010 3972 2112",
    "hours": "(얼굴밑으로만 때려주세용....)+ NF맞고꼬집고  PM12:00~AM12:00",
    "kakao_id": "",
    "telegram_id": ""
  },
  {
    "title": "[휴게텔] 낼름낼름",
    "url": "https://dkxm8.com/profile_popup.php?idx=995987&gubun=1",
    "area": "청주",
    "region": "대전/충청",
    "thumbnail": "https://dkxm8.com/img/temp_thum.jpg",
    "description": "❤️ 청주 유일 전원 베트남 ❤️",
    "phone": "010-2274-1915",
    "hours": "오후 12시부터 가능합니다!!",
    "kakao_id": "",
    "telegram_id": ""
  },
  {
    "title": "[건마] 버블아로마",
    "url": "https://dkxm8.com/profile_popup.php?idx=1242236&gubun=1",
    "area": "청주",
    "region": "대전/충청",
    "thumbnail": "https://dkxm8.com/img/temp_thum.jpg",
    "description": "",
    "phone": "010-8879-8929",
    "hours": "",
    "kakao_id": "",
    "telegram_id": ""
  },
  {
    "title": "[건마] Feel",
    "url": "https://dkxm8.com/profile_popup.php?idx=1169880&gubun=1",
    "area": "청주",
    "region": "대전/충청",
    "thumbnail": "https://dkxm8.com/img/temp_thum.jpg",
    "description": "010-5507-6659❤️",
    "phone": "010-5507-6659",
    "hours": "",
    "kakao_id": "",
    "telegram_id": ""
  },
  {
    "title": "[오피] 차칸가게",
    "url": "https://dkxm8.com/profile_popup.php?idx=1093322&gubun=1",
    "area": "청주",
    "region": "대전/충청",
    "thumbnail": "https://dkxm8.com/img/temp_thum.jpg",
    "description": "✅️010-7970-6635✅️",
    "phone": "010-7970-6635",
    "hours": "",
    "kakao_id": "",
    "telegram_id": "https://t.me/+6I2UBuyEgDAxZmI1"
  },
  {
    "title": "[립카페] 아이스크림",
    "url": "https://dkxm8.com/profile_popup.php?idx=648516&gubun=1",
    "area": "청주",
    "region": "대전/충청",
    "thumbnail": "https://dkxm8.com/img/temp_thum.jpg",
    "description": "⭐ 010-4695-2836⭐",
    "phone": "010-4695-2836",
    "hours": "",
    "kakao_id": "",
    "telegram_id": ""
  },
  {
    "title": "[오피] 블링블링",
    "url": "https://dkxm8.com/profile_popup.php?idx=182896&gubun=1",
    "area": "청주",
    "region": "대전/충청",
    "thumbnail": "https://dkxm8.com/img/temp_thum.jpg",
    "description": "✅ 010-6453-2299 ✅",
    "phone": "010-6453-2299",
    "hours": "",
    "kakao_id": "",
    "telegram_id": ""
  },
  {
    "title": "[건마] 러블리스웨디시",
    "url": "https://dkxm8.com/profile_popup.php?idx=1281923&gubun=1",
    "area": "청주",
    "region": "대전/충청",
    "thumbnail": "https://dkxm8.com/img/temp_thum.jpg",
    "description": "♥010-4649-7062♥",
    "phone": "010-4649-7062",
    "hours": "♥애라♥ PM 15:00~",
    "kakao_id": "",
    "telegram_id": ""
  },
  {
    "title": "[건마] 쿵떡쿵떡",
    "url": "https://dkxm8.com/profile_popup.php?idx=1206440&gubun=1",
    "area": "청주",
    "region": "대전/충청",
    "thumbnail": "https://dkxm8.com/img/temp_thum.jpg",
    "description": "",
    "phone": "010-8180-0304",
    "hours": "",
    "kakao_id": "",
    "telegram_id": ""
  },
  {
    "title": "[건마] 앙큼한스웨디시",
    "url": "https://dkxm8.com/profile_popup.php?idx=1119461&gubun=1",
    "area": "청주",
    "region": "대전/충청",
    "thumbnail": "https://dkxm8.com/img/temp_thum.jpg",
    "description": "강서터미널 1분 한국인 하드",
    "phone": "",
    "hours": "",
    "kakao_id": "",
    "telegram_id": ""
  },
  {
    "title": "[오피] 사쿠라",
    "url": "https://dkxm8.com/profile_popup.php?idx=1354024&gubun=1",
    "area": "청주",
    "region": "대전/충청",
    "thumbnail": "https://dkxm8.com/img/temp_thum.jpg",
    "description": "",
    "phone": "010-2660-7465",
    "hours": "",
    "kakao_id": "",
    "telegram_id": "https://t.me/tt1633hh"
  },
  {
    "title": "[건마] 한소율1인샵",
    "url": "https://dkxm8.com/profile_popup.php?idx=1349315&gubun=1",
    "area": "청주",
    "region": "대전/충청",
    "thumbnail": "https://dkxm8.com/img/temp_thum.jpg",
    "description": "",
    "phone": "010-2116-6984",
    "hours": "오전10:00부터 마감까지 전화예약가능합니다.",
    "kakao_id": "",
    "telegram_id": ""
  },
  {
    "title": "[건마] 아방궁",
    "url": "https://dkxm8.com/profile_popup.php?idx=1117051&gubun=1",
    "area": "청주",
    "region": "대전/충청",
    "thumbnail": "https://dkxm8.com/img/temp_thum.jpg",
    "description": "",
    "phone": "010-5844-7998",
    "hours": "청주24시영업!핑보!69보빨 맛집!!",
    "kakao_id": "",
    "telegram_id": ""
  },
  {
    "title": "[오피] 플러팅",
    "url": "https://dkxm8.com/profile_popup.php?idx=1227911&gubun=1",
    "area": "청주",
    "region": "대전/충청",
    "thumbnail": "https://dkxm8.com/img/temp_thum.jpg",
    "description": "❤️010-2153-9777❤️",
    "phone": "010-2153-9777",
    "hours": "",
    "kakao_id": "",
    "telegram_id": ""
  },
  {
    "title": "[오피] 키티",
    "url": "https://dkxm8.com/profile_popup.php?idx=765145&gubun=1",
    "area": "청주",
    "region": "대전/충청",
    "thumbnail": "https://dkxm8.com/img/temp_thum.jpg",
    "description": "✨010-8221-6967✨",
    "phone": "010-8221-6967",
    "hours": "",
    "kakao_id": "",
    "telegram_id": ""
  },
  {
    "title": "[건마] 제이테라피",
    "url": "https://dkxm8.com/profile_popup.php?idx=1294190&gubun=1",
    "area": "청주",
    "region": "대전/충청",
    "thumbnail": "https://dkxm8.com/img/temp_thum.jpg",
    "description": "♥  네이버 카페 클릭 ↓↓ ♥",
    "phone": "010-6816-1024",
    "hours": "",
    "kakao_id": "",
    "telegram_id": ""
  },
  {
    "title": "[건마] 마보이",
    "url": "https://dkxm8.com/profile_popup.php?idx=1086339&gubun=1",
    "area": "청주",
    "region": "대전/충청",
    "thumbnail": "https://dkxm8.com/img/temp_thum.jpg",
    "description": "",
    "phone": "010-6570-9780",
    "hours": "",
    "kakao_id": "",
    "telegram_id": ""
  },
  {
    "title": "[건마] 물빨너1인샵",
    "url": "https://dkxm8.com/profile_popup.php?idx=1366931&gubun=1",
    "area": "청주",
    "region": "대전/충청",
    "thumbnail": "https://dkxm8.com/img/temp_thum.jpg",
    "description": "❤️청주 고속버스터미널 부근❤️",
    "phone": "010-5705-8598",
    "hours": "오전 10시부터  예약 받습니다",
    "kakao_id": "",
    "telegram_id": ""
  },
  {
    "title": "[건마] 빨간앵두",
    "url": "https://dkxm8.com/profile_popup.php?idx=1325476&gubun=1",
    "area": "청주",
    "region": "대전/충청",
    "thumbnail": "https://dkxm8.com/img/temp_thum.jpg",
    "description": "",
    "phone": "010-6849-6841",
    "hours": "",
    "kakao_id": "",
    "telegram_id": ""
  },
  {
    "title": "[건마] 충북대스웨디시",
    "url": "https://dkxm8.com/profile_popup.php?idx=1081934&gubun=1",
    "area": "청주",
    "region": "대전/충청",
    "thumbnail": "https://dkxm8.com/img/temp_thum.jpg",
    "description": "♥010-7617-7062♥",
    "phone": "010-7617-7062",
    "hours": "♥애라♥ PM 15:00~",
    "kakao_id": "",
    "telegram_id": ""
  },
  {
    "title": "[건마] SK테라피",
    "url": "https://dkxm8.com/profile_popup.php?idx=967783&gubun=1",
    "area": "청주",
    "region": "대전/충청",
    "thumbnail": "https://dkxm8.com/img/temp_thum.jpg",
    "description": "❤️봉명동 와꾸 + 서비스 !! 내상치료해드립니다!!",
    "phone": "",
    "hours": "",
    "kakao_id": "",
    "telegram_id": ""
  },
  {
    "title": "[오피] 디저트",
    "url": "https://dkxm8.com/profile_popup.php?idx=648235&gubun=1",
    "area": "청주",
    "region": "대전/충청",
    "thumbnail": "https://dkxm8.com/img/temp_thum.jpg",
    "description": "",
    "phone": "010-2651-3256",
    "hours": "",
    "kakao_id": "",
    "telegram_id": ""
  },
  {
    "title": "[휴게텔] 요정집",
    "url": "https://dkxm8.com/profile_popup.php?idx=1286487&gubun=1",
    "area": "청주",
    "region": "대전/충청",
    "thumbnail": "https://dkxm8.com/img/temp_thum.jpg",
    "description": "❤️확실한 마인드❤️최상의 서비스❤️최고의 가성비❤️",
    "phone": "010-5816-9499",
    "hours": "",
    "kakao_id": "",
    "telegram_id": ""
  },
  {
    "title": "[건마] 포엠",
    "url": "https://dkxm8.com/profile_popup.php?idx=650837&gubun=1",
    "area": "청주",
    "region": "대전/충청",
    "thumbnail": "https://dkxm8.com/img/temp_thum.jpg",
    "description": "❤️010-3626-7975❤️",
    "phone": "010-3626-7975",
    "hours": "오전 9시이후 순차적으로 예약 도와 드리고 있으니",
    "kakao_id": "",
    "telegram_id": ""
  },
  {
    "title": "[휴게텔] 스캔들",
    "url": "https://dkxm8.com/profile_popup.php?idx=1234052&gubun=1",
    "area": "청주",
    "region": "대전/충청",
    "thumbnail": "https://dkxm8.com/img/temp_thum.jpg",
    "description": "",
    "phone": "010-5893-7057",
    "hours": "",
    "kakao_id": "",
    "telegram_id": ""
  },
  {
    "title": "[휴게텔] 초콜릿",
    "url": "https://dkxm8.com/profile_popup.php?idx=986640&gubun=1",
    "area": "청주",
    "region": "대전/충청",
    "thumbnail": "https://dkxm8.com/img/temp_thum.jpg",
    "description": "초콜릿❤️내상제로❤️청주고속터미널",
    "phone": "010-2336-2625",
    "hours": "12:00PM ~ 5:00AM",
    "kakao_id": "",
    "telegram_id": ""
  },
  {
    "title": "[건마] 콜라스웨디시",
    "url": "https://dkxm8.com/profile_popup.php?idx=1318229&gubun=1",
    "area": "세종",
    "region": "대전/충청",
    "thumbnail": "https://dkxm8.com/img/temp_thum.jpg",
    "description": "나성동 NF맛집 사이즈 보장",
    "phone": "010-8037-6696",
    "hours": "✴️ 이  나 20:30 ~ 02:00 ✴️",
    "kakao_id": "",
    "telegram_id": ""
  },
  {
    "title": "[건마] 허니스웨디시",
    "url": "https://dkxm8.com/profile_popup.php?idx=955907&gubun=1",
    "area": "세종",
    "region": "대전/충청",
    "thumbnail": "https://dkxm8.com/img/temp_thum.jpg",
    "description": "❤️010-3414-6778❤️",
    "phone": "010-3414-6778",
    "hours": "⭐유  라⭐  [14:00 ~ 03:00]",
    "kakao_id": "",
    "telegram_id": ""
  },
  {
    "title": "[건마] 슈퍼맨스웨디시",
    "url": "https://dkxm8.com/profile_popup.php?idx=859643&gubun=1",
    "area": "세종",
    "region": "대전/충청",
    "thumbnail": "https://dkxm8.com/img/temp_thum.jpg",
    "description": "Q. 스웨디시코스에 60분 누나카세 할인은 뭔가요?",
    "phone": "010-2281-3681",
    "hours": "A. 30분(낮 12시~ 오후 6시)// 60분 코스입니다.",
    "kakao_id": "",
    "telegram_id": ""
  },
  {
    "title": "[건마] 복숭아",
    "url": "https://dkxm8.com/profile_popup.php?idx=1342842&gubun=1",
    "area": "세종",
    "region": "대전/충청",
    "thumbnail": "https://dkxm8.com/img/temp_thum.jpg",
    "description": "",
    "phone": "010-7501-8293",
    "hours": "",
    "kakao_id": "",
    "telegram_id": ""
  },
  {
    "title": "[건마] 샾잉스웨디시",
    "url": "https://dkxm8.com/profile_popup.php?idx=899391&gubun=1",
    "area": "세종",
    "region": "대전/충청",
    "thumbnail": "https://dkxm8.com/img/temp_thum.jpg",
    "description": "❤️010-5847-3871❤️",
    "phone": "010-5847-3871",
    "hours": "❤ 태 린 ❤   12:00 - 23:00",
    "kakao_id": "",
    "telegram_id": ""
  },
  {
    "title": "[건마] 홀릭스웨디시",
    "url": "https://dkxm8.com/profile_popup.php?idx=1354638&gubun=1",
    "area": "세종",
    "region": "대전/충청",
    "thumbnail": "https://dkxm8.com/img/temp_thum.jpg",
    "description": "#청순+섹시+귀염 삼위일체♥",
    "phone": "010-8173-7822",
    "hours": "13:00~20:00",
    "kakao_id": "",
    "telegram_id": ""
  },
  {
    "title": "[건마] 요정",
    "url": "https://dkxm8.com/profile_popup.php?idx=669432&gubun=1",
    "area": "세종",
    "region": "대전/충청",
    "thumbnail": "https://dkxm8.com/img/temp_thum.jpg",
    "description": "★★신규오픈▀▀★★최고의 마인드★내상제로■❤★확실하게 풀어드리겠습니다!▀",
    "phone": "010-3973-7881",
    "hours": "",
    "kakao_id": "",
    "telegram_id": ""
  },
  {
    "title": "[건마] 린스웨디시",
    "url": "https://dkxm8.com/profile_popup.php?idx=649726&gubun=1",
    "area": "세종",
    "region": "대전/충청",
    "thumbnail": "https://dkxm8.com/img/temp_thum.jpg",
    "description": "❤️판타스틱 감성 테라피❤️",
    "phone": "010-2116-1703",
    "hours": "",
    "kakao_id": "",
    "telegram_id": ""
  },
  {
    "title": "[건마] The 딸",
    "url": "https://dkxm8.com/profile_popup.php?idx=648573&gubun=1",
    "area": "세종",
    "region": "대전/충청",
    "thumbnail": "https://dkxm8.com/img/temp_thum.jpg",
    "description": "♥가성비 최고!!마사지,서비스 Good!!♥",
    "phone": "010-4638-1166",
    "hours": "",
    "kakao_id": "",
    "telegram_id": ""
  },
  {
    "title": "[건마] 이글스",
    "url": "https://dkxm8.com/profile_popup.php?idx=471933&gubun=1",
    "area": "세종",
    "region": "대전/충청",
    "thumbnail": "https://dkxm8.com/img/temp_thum.jpg",
    "description": "",
    "phone": "010-5873-7666",
    "hours": "",
    "kakao_id": "",
    "telegram_id": ""
  },
  {
    "title": "[건마] 은하수",
    "url": "https://dkxm8.com/profile_popup.php?idx=1301633&gubun=1",
    "area": "세종",
    "region": "대전/충청",
    "thumbnail": "https://dkxm8.com/img/temp_thum.jpg",
    "description": "",
    "phone": "010-9187-9363",
    "hours": "",
    "kakao_id": "",
    "telegram_id": ""
  },
  {
    "title": "[건마] 신의손",
    "url": "https://dkxm8.com/profile_popup.php?idx=904631&gubun=1",
    "area": "세종",
    "region": "대전/충청",
    "thumbnail": "https://dkxm8.com/img/temp_thum.jpg",
    "description": "야릇한 손길 느끼러 와요!!❤️❤️",
    "phone": "010-9843-2264",
    "hours": "",
    "kakao_id": "",
    "telegram_id": ""
  },
  {
    "title": "[건마] 천사",
    "url": "https://dkxm8.com/profile_popup.php?idx=863226&gubun=1",
    "area": "세종",
    "region": "대전/충청",
    "thumbnail": "https://dkxm8.com/img/temp_thum.jpg",
    "description": "",
    "phone": "010-2155-3666",
    "hours": "",
    "kakao_id": "",
    "telegram_id": ""
  },
  {
    "title": "[건마] 아지트",
    "url": "https://dkxm8.com/profile_popup.php?idx=1276056&gubun=1",
    "area": "세종",
    "region": "대전/충청",
    "thumbnail": "https://dkxm8.com/img/temp_thum.jpg",
    "description": "아는 사람들만 아는 스웨 맛집 아지트에 초대할게요 ❤",
    "phone": "010-6701-1159",
    "hours": "예약 문의는 12시 부터 가능합니다 !",
    "kakao_id": "",
    "telegram_id": ""
  },
  {
    "title": "[건마] 천사유혹",
    "url": "https://dkxm8.com/profile_popup.php?idx=1148575&gubun=1",
    "area": "세종",
    "region": "대전/충청",
    "thumbnail": "https://dkxm8.com/img/temp_thum.jpg",
    "description": "",
    "phone": "010-2268-6625",
    "hours": "",
    "kakao_id": "",
    "telegram_id": ""
  },
  {
    "title": "[건마] 행복",
    "url": "https://dkxm8.com/profile_popup.php?idx=1272466&gubun=1",
    "area": "세종",
    "region": "대전/충청",
    "thumbnail": "https://dkxm8.com/img/temp_thum.jpg",
    "description": "",
    "phone": "010-2182-8226",
    "hours": "",
    "kakao_id": "",
    "telegram_id": ""
  },
  {
    "title": "[건마] 고구마",
    "url": "https://dkxm8.com/profile_popup.php?idx=1129851&gubun=1",
    "area": "세종",
    "region": "대전/충청",
    "thumbnail": "https://dkxm8.com/img/temp_thum.jpg",
    "description": "",
    "phone": "010-5641-6813",
    "hours": "",
    "kakao_id": "",
    "telegram_id": ""
  },
  {
    "title": "[건마] 여우",
    "url": "https://dkxm8.com/profile_popup.php?idx=1228236&gubun=1",
    "area": "세종",
    "region": "대전/충청",
    "thumbnail": "https://dkxm8.com/img/temp_thum.jpg",
    "description": "",
    "phone": "010-7529-8628",
    "hours": "",
    "kakao_id": "",
    "telegram_id": ""
  },
  {
    "title": "[건마] 이끌림스웨디시",
    "url": "https://dkxm8.com/profile_popup.php?idx=1357942&gubun=1",
    "area": "세종",
    "region": "대전/충청",
    "thumbnail": "https://dkxm8.com/img/temp_thum.jpg",
    "description": "20대 한국 스웨디시 입니다",
    "phone": "010-3219-6698",
    "hours": "❤️  민 아  ❤️ PM 13:00  -  AM 00:00",
    "kakao_id": "",
    "telegram_id": "https://t.me/+W2sRVE0FfZ8yMTk1"
  },
  {
    "title": "[건마] 콜라스웨디시",
    "url": "https://dkxm8.com/profile_popup.php?idx=1318229&gubun=1",
    "area": "세종",
    "region": "대전/충청",
    "thumbnail": "https://dkxm8.com/img/temp_thum.jpg",
    "description": "나성동 NF맛집 사이즈 보장",
    "phone": "010-8037-6696",
    "hours": "✴️ 이  나 20:30 ~ 02:00 ✴️",
    "kakao_id": "",
    "telegram_id": ""
  },
  {
    "title": "[건마] 사쿠라",
    "url": "https://dkxm8.com/profile_popup.php?idx=1294719&gubun=1",
    "area": "세종",
    "region": "대전/충청",
    "thumbnail": "https://dkxm8.com/img/temp_thum.jpg",
    "description": "",
    "phone": "010-5865-0882",
    "hours": "",
    "kakao_id": "",
    "telegram_id": ""
  },
  {
    "title": "[건마] 허니스웨디시",
    "url": "https://dkxm8.com/profile_popup.php?idx=955907&gubun=1",
    "area": "세종",
    "region": "대전/충청",
    "thumbnail": "https://dkxm8.com/img/temp_thum.jpg",
    "description": "❤️010-3414-6778❤️",
    "phone": "010-3414-6778",
    "hours": "⭐유  라⭐  [14:00 ~ 03:00]",
    "kakao_id": "",
    "telegram_id": ""
  },
  {
    "title": "[건마] 슈퍼맨스웨디시",
    "url": "https://dkxm8.com/profile_popup.php?idx=859643&gubun=1",
    "area": "세종",
    "region": "대전/충청",
    "thumbnail": "https://dkxm8.com/img/temp_thum.jpg",
    "description": "Q. 스웨디시코스에 60분 누나카세 할인은 뭔가요?",
    "phone": "010-2281-3681",
    "hours": "A. 30분(낮 12시~ 오후 6시)// 60분 코스입니다.",
    "kakao_id": "",
    "telegram_id": ""
  },
  {
    "title": "[휴게텔] 마르지엘라",
    "url": "https://dkxm8.com/profile_popup.php?idx=1248439&gubun=1",
    "area": "세종",
    "region": "대전/충청",
    "thumbnail": "https://dkxm8.com/img/temp_thum.jpg",
    "description": "⚜️세종⚜️나성동✔️전원100% 실사✔️",
    "phone": "010-9809-2501",
    "hours": "",
    "kakao_id": "",
    "telegram_id": ""
  },
  {
    "title": "[건마] 심쿵스웨디시",
    "url": "https://dkxm8.com/profile_popup.php?idx=1208170&gubun=1",
    "area": "세종",
    "region": "대전/충청",
    "thumbnail": "https://dkxm8.com/img/temp_thum.jpg",
    "description": "★1:1마춤상담★ NF대거영입 ★개인샤워장 ★주차무료★",
    "phone": "010-8110-7473",
    "hours": "NF설아  [19시~03시]",
    "kakao_id": "",
    "telegram_id": ""
  },
  {
    "title": "[휴게텔] 마인드출장",
    "url": "https://dkxm8.com/profile_popup.php?idx=1154486&gubun=1",
    "area": "세종",
    "region": "대전/충청",
    "thumbnail": "https://dkxm8.com/img/temp_thum.jpg",
    "description": "",
    "phone": "010-2601-2743",
    "hours": "",
    "kakao_id": "",
    "telegram_id": ""
  },
  {
    "title": "[건마] 버블스웨디시",
    "url": "https://dkxm8.com/profile_popup.php?idx=1203947&gubun=1",
    "area": "서산",
    "region": "대전/충청",
    "thumbnail": "https://dkxm8.com/img/temp_thum.jpg",
    "description": "[서산-❤️버블 스웨디시] ❤️전원 한국인",
    "phone": "010-6507-2849",
    "hours": "",
    "kakao_id": "",
    "telegram_id": ""
  },
  {
    "title": "[오피스텔] 꽃밭",
    "url": "https://dkxm8.com/profile_popup.php?idx=1197188&gubun=1",
    "area": "서산",
    "region": "대전/충청",
    "thumbnail": "https://dkxm8.com/img/temp_thum.jpg",
    "description": "✨신규오픈✨⭐한국매니저⭐⭐ ✅대박 라인업!!",
    "phone": "010-2187-5888",
    "hours": "",
    "kakao_id": "",
    "telegram_id": ""
  },
  {
    "title": "[오피스텔] 스타벅스",
    "url": "https://dkxm8.com/profile_popup.php?idx=914845&gubun=1",
    "area": "서산",
    "region": "대전/충청",
    "thumbnail": "https://dkxm8.com/img/temp_thum.jpg",
    "description": "❤️❤️서산 즐거운 달림! ❤️❤️",
    "phone": "010-2891-2885",
    "hours": "",
    "kakao_id": "",
    "telegram_id": ""
  },
  {
    "title": "[오피] 꽃밭",
    "url": "https://dkxm8.com/profile_popup.php?idx=1197188&gubun=1",
    "area": "서산",
    "region": "대전/충청",
    "thumbnail": "https://dkxm8.com/img/temp_thum.jpg",
    "description": "✨신규오픈✨⭐한국매니저⭐⭐ ✅대박 라인업!!",
    "phone": "010-2187-5888",
    "hours": "",
    "kakao_id": "",
    "telegram_id": ""
  },
  {
    "title": "[오피] 스타벅스",
    "url": "https://dkxm8.com/profile_popup.php?idx=914845&gubun=1",
    "area": "서산",
    "region": "대전/충청",
    "thumbnail": "https://dkxm8.com/img/temp_thum.jpg",
    "description": "❤️❤️서산 즐거운 달림! ❤️❤️",
    "phone": "010-2891-2885",
    "hours": "",
    "kakao_id": "",
    "telegram_id": ""
  },
  {
    "title": "[건마] 스위트스웨디시",
    "url": "https://dkxm8.com/profile_popup.php?idx=649383&gubun=1",
    "area": "서산",
    "region": "대전/충청",
    "thumbnail": "https://dkxm8.com/img/temp_thum.jpg",
    "description": "♥한국♥ 최고의 가성비와 극강의 마인드로 즐달의 명소로 만들",
    "phone": "010-8357-9171",
    "hours": "",
    "kakao_id": "",
    "telegram_id": ""
  },
  {
    "title": "[건마] 버블스웨디시",
    "url": "https://dkxm8.com/profile_popup.php?idx=1203947&gubun=1",
    "area": "서산",
    "region": "대전/충청",
    "thumbnail": "https://dkxm8.com/img/temp_thum.jpg",
    "description": "[서산-❤️버블 스웨디시] ❤️전원 한국인",
    "phone": "010-6507-2849",
    "hours": "",
    "kakao_id": "",
    "telegram_id": ""
  },
  {
    "title": "[건마] 효녀출장",
    "url": "https://dkxm8.com/profile_popup.php?idx=1243657&gubun=1",
    "area": "당진",
    "region": "대전/충청",
    "thumbnail": "https://dkxm8.com/img/temp_thum.jpg",
    "description": "",
    "phone": "010-9909-5176",
    "hours": "",
    "kakao_id": "",
    "telegram_id": ""
  },
  {
    "title": "[오피스텔] 당진러시아출장",
    "url": "https://dkxm8.com/profile_popup.php?idx=1246467&gubun=1",
    "area": "당진",
    "region": "대전/충청",
    "thumbnail": "https://dkxm8.com/img/temp_thum.jpg",
    "description": "",
    "phone": "010-8129-2638",
    "hours": "",
    "kakao_id": "",
    "telegram_id": ""
  },
  {
    "title": "[건마] 다이아스웨디시",
    "url": "https://dkxm8.com/profile_popup.php?idx=1365421&gubun=1",
    "area": "당진",
    "region": "대전/충청",
    "thumbnail": "https://dkxm8.com/img/temp_thum.jpg",
    "description": "당진 문예의전당 근처 ♥️ 당진1등 내상제로 최강라인업",
    "phone": "010-8174-7010",
    "hours": "",
    "kakao_id": "",
    "telegram_id": ""
  },
  {
    "title": "[휴게텔] 당신",
    "url": "https://dkxm8.com/profile_popup.php?idx=1276300&gubun=1",
    "area": "당진",
    "region": "대전/충청",
    "thumbnail": "https://dkxm8.com/img/temp_thum.jpg",
    "description": "✅010-7512-4608✅",
    "phone": "010-7512-4608",
    "hours": "",
    "kakao_id": "",
    "telegram_id": ""
  },
  {
    "title": "[휴게텔] 여자친구",
    "url": "https://dkxm8.com/profile_popup.php?idx=648275&gubun=1",
    "area": "당진",
    "region": "대전/충청",
    "thumbnail": "https://dkxm8.com/img/temp_thum.jpg",
    "description": "",
    "phone": "010-9637-2922",
    "hours": "",
    "kakao_id": "",
    "telegram_id": ""
  },
  {
    "title": "[오피] 당진러시아출장",
    "url": "https://dkxm8.com/profile_popup.php?idx=1246467&gubun=1",
    "area": "당진",
    "region": "대전/충청",
    "thumbnail": "https://dkxm8.com/img/temp_thum.jpg",
    "description": "",
    "phone": "010-8129-2638",
    "hours": "",
    "kakao_id": "",
    "telegram_id": ""
  },
  {
    "title": "[오피] 퍼스트",
    "url": "https://dkxm8.com/profile_popup.php?idx=1234573&gubun=1",
    "area": "당진",
    "region": "대전/충청",
    "thumbnail": "https://dkxm8.com/img/temp_thum.jpg",
    "description": "⭐010 - 8114 - 1153⭐",
    "phone": "010-8114-1153",
    "hours": "❤️영업시간:오후1시~새벽4시❤️",
    "kakao_id": "",
    "telegram_id": ""
  },
  {
    "title": "[건마] 효녀출장",
    "url": "https://dkxm8.com/profile_popup.php?idx=1243657&gubun=1",
    "area": "당진",
    "region": "대전/충청",
    "thumbnail": "https://dkxm8.com/img/temp_thum.jpg",
    "description": "",
    "phone": "010-9909-5176",
    "hours": "",
    "kakao_id": "",
    "telegram_id": ""
  },
  {
    "title": "[건마] 다이아스웨디시",
    "url": "https://dkxm8.com/profile_popup.php?idx=1365421&gubun=1",
    "area": "당진",
    "region": "대전/충청",
    "thumbnail": "https://dkxm8.com/img/temp_thum.jpg",
    "description": "당진 문예의전당 근처 ♥️ 당진1등 내상제로 최강라인업",
    "phone": "010-8174-7010",
    "hours": "",
    "kakao_id": "",
    "telegram_id": ""
  },
  {
    "title": "[건마] 몽마사지",
    "url": "https://dkxm8.com/profile_popup.php?idx=1194554&gubun=1",
    "area": "보령",
    "region": "대전/충청",
    "thumbnail": "https://dkxm8.com/img/temp_thum.jpg",
    "description": "",
    "phone": "010 6581 4686",
    "hours": "",
    "kakao_id": "",
    "telegram_id": ""
  },
  {
    "title": "[오피스텔] 만남의광장",
    "url": "https://dkxm8.com/profile_popup.php?idx=1012096&gubun=1",
    "area": "보령",
    "region": "대전/충청",
    "thumbnail": "https://dkxm8.com/img/temp_thum.jpg",
    "description": "",
    "phone": "010-9824-3677",
    "hours": "",
    "kakao_id": "",
    "telegram_id": ""
  },
  {
    "title": "[오피] 만남의광장",
    "url": "https://dkxm8.com/profile_popup.php?idx=1012096&gubun=1",
    "area": "보령",
    "region": "대전/충청",
    "thumbnail": "https://dkxm8.com/img/temp_thum.jpg",
    "description": "",
    "phone": "010-9824-3677",
    "hours": "",
    "kakao_id": "",
    "telegram_id": ""
  },
  {
    "title": "[건마] 몽마사지",
    "url": "https://dkxm8.com/profile_popup.php?idx=1194554&gubun=1",
    "area": "보령",
    "region": "대전/충청",
    "thumbnail": "https://dkxm8.com/img/temp_thum.jpg",
    "description": "",
    "phone": "010 6581 4686",
    "hours": "",
    "kakao_id": "",
    "telegram_id": ""
  },
  {
    "title": "[휴게텔] 이자카야",
    "url": "https://dkxm8.com/profile_popup.php?idx=648232&gubun=1",
    "area": "진천",
    "region": "대전/충청",
    "thumbnail": "https://dkxm8.com/img/temp_thum.jpg",
    "description": "❤️❤️실장 믿고 방문해주세요 업소 1등 자신있습니다❤️❤️",
    "phone": "010-6806-0955",
    "hours": "",
    "kakao_id": "",
    "telegram_id": ""
  }
]