[
  {
    "title": "[휴게텔] 세탁소",
    "url": "https://dkxm8.com/profile_popup.php?idx=648425&gubun=1",
    "area": "대전",
    "region": "대전/충청",
    "thumbnail": "https://dkxm8.com/img/temp_thum.jpg",
    "description": "",
    "phone": "010-3440-8920",
    "hours": "운영시간: 낮 1시부터 새벽 5시까지",
    "kakao_id": "",
    "telegram_id": ""
  },
  {
    "title": "[유흥주점] 안석구실장",
    "url": "https://dkxm8.com/profile_popup.php?idx=648437&gubun=1",
    "area": "대전",
    "region": "대전/충청",
    "thumbnail": "https://dkxm8.com/img/temp_thum.jpg",
    "description": "",
    "phone": "010-7591-5950",
    "hours": "",
    "kakao_id": "",
    "telegram_id": ""
  },
  {
    "title": "[오피스텔] 유앤미",
    "url": "https://dkxm8.com/profile_popup.php?idx=648446&gubun=1",
    "area": "대전",
    "region": "대전/충청",
    "thumbnail": "https://dkxm8.com/img/temp_thum.jpg",
    "description": "⭐⭐010-8296-4961⭐⭐",
    "phone": "010-8296-4961",
    "hours": "",
    "kakao_id": "",
    "telegram_id": ""
  },
  {
    "title": "[휴게텔] S스웨텔",
    "url": "https://dkxm8.com/profile_popup.php?idx=648579&gubun=1",
    "area": "대전",
    "region": "대전/충청",
    "thumbnail": "https://dkxm8.com/img/temp_thum.jpg",
    "description": "비흡연 해주시면 더 사랑해요♥️",
    "phone": "010-4996-1945",
    "hours": "",
    "kakao_id": "",
    "telegram_id": "https://t.me/Scallcenter"
  },
  {
    "title": "[건마] 후궁",
    "url": "https://dkxm8.com/profile_popup.php?idx=1054093&gubun=1",
    "area": "대전",
    "region": "대전/충청",
    "thumbnail": "https://dkxm8.com/img/temp_thum.jpg",
    "description": "⭐010-3948-5477⭐",
    "phone": "010-3948-5477",
    "hours": "✔  주간 18시까지 1만원 할인 ✔",
    "kakao_id": "",
    "telegram_id": ""
  },
  {
    "title": "[건마] S스웨디시",
    "url": "https://dkxm8.com/profile_popup.php?idx=531333&gubun=1",
    "area": "대전",
    "region": "대전/충청",
    "thumbnail": "https://dkxm8.com/img/temp_thum.jpg",
    "description": "1인실 오피형 한국 하드 스웨디시",
    "phone": "010-4996-1945",
    "hours": "",
    "kakao_id": "",
    "telegram_id": "https://t.me/Scallcenter"
  },
  {
    "title": "[휴게텔] 굿나잇",
    "url": "https://dkxm8.com/profile_popup.php?idx=1303954&gubun=1",
    "area": "대전",
    "region": "대전/충청",
    "thumbnail": "https://dkxm8.com/img/temp_thum.jpg",
    "description": "",
    "phone": "010-5922-7795",
    "hours": "",
    "kakao_id": "",
    "telegram_id": ""
  },
  {
    "title": "[안마] 스타",
    "url": "https://dkxm8.com/profile_popup.php?idx=349803&gubun=1",
    "area": "대전",
    "region": "대전/충청",
    "thumbnail": "https://dkxm8.com/img/temp_thum.jpg",
    "description": "❤️NF맛집❤️24시영업❤️유성❤️카드가능❤️단체가능❤️재방1위❤️",
    "phone": "010-6587-2756",
    "hours": "❤️NF맛집❤️24시영업❤️유성❤️카드가능❤️단체가능❤️재방1위❤️",
    "kakao_id": "",
    "telegram_id": ""
  },
  {
    "title": "[오피] 초콜렛",
    "url": "https://dkxm8.com/profile_popup.php?idx=648690&gubun=1",
    "area": "대전",
    "region": "대전/충청",
    "thumbnail": "https://dkxm8.com/img/temp_thum.jpg",
    "description": "진짜정직한가격 3만원할인받는 기분 가성비 짱!!대전 복합터미널인근!!",
    "phone": "010-8209-1852",
    "hours": "",
    "kakao_id": "",
    "telegram_id": ""
  },
  {
    "title": "[건마] 홍콩중국마사지",
    "url": "https://dkxm8.com/profile_popup.php?idx=943695&gubun=1",
    "area": "대전",
    "region": "대전/충청",
    "thumbnail": "https://dkxm8.com/img/temp_thum.jpg",
    "description": "▓█▇▅▂❤️매력 뿜뿜 ❤️▂▅▇█▓ ⭐최상의 서비스와 마인드⭐️내상제",
    "phone": "010-2407-5643",
    "hours": "",
    "kakao_id": "",
    "telegram_id": ""
  }
]