[
  {
    "title": "[룸/풀사롱] 강남미러풀싸롱",
    "url": "https://dkxm8.com/profile_popup.php?idx=189823&gubun=1",
    "description": "✡️매직미러✡️한소희실장✡️",
    "hours": "24시✡️010-9755-4905",
    "phone": "010-9755-4905",
    "kakao_id": "",
    "telegram_id": "",
    "thumbnail": "https://dkxm8.com/data/file/main/1728182871_soKhj0i1_af9bcca38dfda0a81230e510e67654b560ed6571.jpg"
  },
  {
    "title": "[룸/풀사롱] 필독",
    "url": "https://dkxm8.com/profile_popup.php?idx=648318&gubun=1",
    "description": "❌ 한번만 ❌읽어주세요✅",
    "hours": "하이퍼블릭",
    "phone": "010-9567-5872",
    "kakao_id": "",
    "telegram_id": "",
    "thumbnail": "https://dkxm8.com/data/file/main/1728182447_8jEqZw7p_53951239b23fa09f2a4f67fa898a64925ce06283.jpg"
  },
  {
    "title": "[룸/풀사롱] 강남베리앤굿",
    "url": "https://dkxm8.com/profile_popup.php?idx=778917&gubun=1",
    "description": "서울 강남",
    "hours": "PM 18:00 ~ AM 06:00",
    "phone": "010-5939-1509",
    "kakao_id": "",
    "telegram_id": "",
    "thumbnail": "https://dkxm8.com/data/file/main/1728182871_Q9VT6Yn8_93b7daa6088bf3d18d0d824b1df8488b5c461242.gif"
  },
  {
    "title": "[건마] 지중해스웨디시",
    "url": "https://dkxm8.com/profile_popup.php?idx=1311519&gubun=1",
    "description": "강동구 천호동",
    "hours": "오전11:00~오전5:00",
    "phone": "010-7776-6885",
    "kakao_id": "",
    "telegram_id": "",
    "thumbnail": "https://dkxm8.com/data/file/main/1502831921_w8ZBUq5E_391d1b6c574507e89aeb27035721bd011e044b97.jpg"
  },
  {
    "title": "[휴게텔] 착한가게",
    "url": "https://dkxm8.com/profile_popup.php?idx=1347765&gubun=1",
    "description": "서울 신림",
    "hours": "AM 11:30 - AM 06:00",
    "phone": "010-6555-4804",
    "kakao_id": "",
    "telegram_id": "",
    "thumbnail": "https://dkxm8.com/data/file/main/1728182871_dTIEKuCA_1d6d3c0e487c40f9495411de5479e7d32d07cb8a.jpg"
  },
  {
    "title": "[휴게텔] 단밤",
    "url": "https://dkxm8.com/profile_popup.php?idx=1166080&gubun=1",
    "description": "서울 관악 신림",
    "hours": "AM 11:30 ~ AM 05:30",
    "phone": "010-7357-2912",
    "kakao_id": "",
    "telegram_id": "",
    "thumbnail": "https://dkxm8.com/data/file/main/2699961699_SrnWGZby_8368b36080c23faec0eeacb56c0985b05711d890.jpg"
  },
  {
    "title": "[오피스텔] 산소",
    "url": "https://dkxm8.com/profile_popup.php?idx=1048604&gubun=1",
    "description": "광주역 부근",
    "hours": "PM 02:00 ~ AM 05:00",
    "phone": "010-8276-2618",
    "kakao_id": "",
    "telegram_id": "",
    "thumbnail": "https://dkxm8.com/data/file/main/1728182447_h6RJzHAi_f6ad54266a8b23235cc6b0111fec5001d2c0a947.jpg"
  },
  {
    "title": "[오피스텔] 인연",
    "url": "https://dkxm8.com/profile_popup.php?idx=648450&gubun=1",
    "description": "구미시 먹자골목 부근",
    "hours": "PM 01:00 ~ AM 06:00",
    "phone": "010-8432-9091",
    "kakao_id": "",
    "telegram_id": "",
    "thumbnail": "https://dkxm8.com/data/file/main/1728182447_EJX9ZTBF_346f3b83b713cff06981f61225dbd49371dea48b.jpg"
  },
  {
    "title": "[오피스텔] 맛집",
    "url": "https://dkxm8.com/profile_popup.php?idx=654699&gubun=1",
    "description": "전북 군산시 (상세주소 문의)",
    "hours": "PM 12:00~AM 05:00",
    "phone": "010-8324-3217",
    "kakao_id": "",
    "telegram_id": "",
    "thumbnail": "https://dkxm8.com/data/file/main/1728182456_5jZdflkh_356a480418132b882d5f769bf6ce8241c1df5d86.gif"
  },
  {
    "title": "[오피스텔] 하리보",
    "url": "https://dkxm8.com/profile_popup.php?idx=1244008&gubun=1",
    "description": "❤️취암동❤️오거리 터미널근처",
    "hours": "1PM ~ 4AM",
    "phone": "010-4379-8642",
    "kakao_id": "",
    "telegram_id": "",
    "thumbnail": "https://dkxm8.com/data/file/main/1502832061_pINkPh6i_1348b6e468bff0918588ea9453c7f917ef8f0390.jpg"
  },
  {
    "title": "[건마] 효녀출장",
    "url": "https://dkxm8.com/profile_popup.php?idx=1243657&gubun=1",
    "description": "A급수질❤️출장업소❤️",
    "hours": "24시간",
    "phone": "010-9909-5176",
    "kakao_id": "",
    "telegram_id": "",
    "thumbnail": "https://dkxm8.com/data/file/main/1728182871_xBTJZ5LV_38b7327406777e74eaf659411791ba3b6e3138bb.jpg"
  },
  {
    "title": "[오피스텔] 당진러시아출장",
    "url": "https://dkxm8.com/profile_popup.php?idx=1246467&gubun=1",
    "description": "당진출장전문방문가능",
    "hours": "오후4:00~오전6:00",
    "phone": "010-8129-2638",
    "kakao_id": "",
    "telegram_id": "",
    "thumbnail": "https://dkxm8.com/data/file/main/1502832069_5Fb2acv3_2001af7f73d1ef274c46c75197921120c1a9b7b7.jpg"
  },
  {
    "title": "[오피스텔] 퍼스트",
    "url": "https://dkxm8.com/profile_popup.php?idx=1234573&gubun=1",
    "description": "충청남도 당진시",
    "hours": "PM 02:00 ~ AM 05:00",
    "phone": "010-8114-1153",
    "kakao_id": "",
    "telegram_id": "",
    "thumbnail": "https://dkxm8.com/data/file/main/2699961636_mR4A03Ws_9711aa6b37253e7231401be78bc66b9b9f15257c.jpg"
  },
  {
    "title": "[오피스텔] 드라마",
    "url": "https://dkxm8.com/profile_popup.php?idx=648254&gubun=1",
    "description": "❣️노콘-질싸❣️무료이벤트❣️",
    "hours": "PM 01:00 ~ AM 05:00",
    "phone": "❤️☞010-3032-1486☜❤️",
    "kakao_id": "",
    "telegram_id": "",
    "thumbnail": "https://dkxm8.com/data/file/main/1728182871_NumOalIx_9b06a902d8de1353cd21fef60633004c241b376c.jpg"
  },
  {
    "title": "[오피스텔] 드라마",
    "url": "https://dkxm8.com/profile_popup.php?idx=648254&gubun=1",
    "description": "❣️노콘-질싸❣️무료이벤트❣️",
    "hours": "PM 01:00 ~ AM 05:00",
    "phone": "❤️☞010-3032-1486☜❤️",
    "kakao_id": "",
    "telegram_id": "",
    "thumbnail": "https://dkxm8.com/data/file/main/1728182871_NumOalIx_9b06a902d8de1353cd21fef60633004c241b376c.jpg"
  },
  {
    "title": "[오피스텔] 신세계",
    "url": "https://dkxm8.com/profile_popup.php?idx=1351888&gubun=1",
    "description": "❤️ 동대구역 도보 5분 ❤️",
    "hours": "01:00PM~CLOES 04:00",
    "phone": "010-2694-5182",
    "kakao_id": "",
    "telegram_id": "",
    "thumbnail": "https://dkxm8.com/data/file/main/1728182871_Si19DMLp_a8bd15e92f82dab8d43a47ec03537bdcbe077d9e.jpg"
  },
  {
    "title": "[오피스텔] 판타지",
    "url": "https://dkxm8.com/profile_popup.php?idx=648663&gubun=1",
    "description": "❤서구❤와꾸NO.1❤",
    "hours": "AM 10:00 ~ AM 05:00",
    "phone": "010-5962-6425",
    "kakao_id": "",
    "telegram_id": "",
    "thumbnail": "https://dkxm8.com/data/file/main/1728182447_fbv3wNtj_9fe9204c61131f5d7f5a6a359e67abddd353c65e.jpg"
  },
  {
    "title": "[휴게텔] 롤렉스",
    "url": "https://dkxm8.com/profile_popup.php?idx=1147796&gubun=1",
    "description": "❤️봉명동❤️와꾸족 드루왕❤️",
    "hours": "❤️PM13:00~AM05:00❤️",
    "phone": "❤️010-2133-9839❤️",
    "kakao_id": "",
    "telegram_id": "",
    "thumbnail": "https://dkxm8.com/data/file/main/1728182871_vAe17d4T_a4c2ee5a7a8f7afafcfdeec346b2ee6ce44ba1ae.jpg"
  },
  {
    "title": "[건마] 후궁",
    "url": "https://dkxm8.com/profile_popup.php?idx=1054093&gubun=1",
    "description": "❤️NF민영❤️극하드올탈❤️",
    "hours": "⭐️12:00~05:00⭐️",
    "phone": "⭐010-3948-5477⭐",
    "kakao_id": "",
    "telegram_id": "",
    "thumbnail": "https://dkxm8.com/data/file/main/1728182447_qOBMyShv_c46f92dc4e01ba8f74652af55327f7745b14dcf7.jpg"
  },
  {
    "title": "[건마] 아우라스웨디시",
    "url": "https://dkxm8.com/profile_popup.php?idx=1300679&gubun=1",
    "description": "서울시 도봉구 창동",
    "hours": "오전11시~오전5시",
    "phone": "010-8051-5885",
    "kakao_id": "",
    "telegram_id": "",
    "thumbnail": "https://dkxm8.com/data/file/main/1502831880_F5TRSk38_9e3827596189062d2ea59d0d2e0941bb61f165d7.jpg"
  },
  {
    "title": "[건마] 클로버스웨디",
    "url": "https://dkxm8.com/profile_popup.php?idx=1179889&gubun=1",
    "description": "동대문구 청량리",
    "hours": "AM 11:00 ~ AM 05:00",
    "phone": "010-5731-1012",
    "kakao_id": "",
    "telegram_id": "",
    "thumbnail": "https://dkxm8.com/data/file/main/1728182871_Ij2k0eyC_ab932cc912b7764aaa64ef710dd4ddfeabf1ea3a.jpg"
  },
  {
    "title": "[건마] 마포S스파",
    "url": "https://dkxm8.com/profile_popup.php?idx=1199300&gubun=1",
    "description": "서울 마포",
    "hours": "AM 11:00 ~ AM 05:00",
    "phone": "010-7553-3678",
    "kakao_id": "",
    "telegram_id": "",
    "thumbnail": "https://dkxm8.com/data/file/main/1728182871_czvSM40s_b62ad7d366c1fad7b9d8cbe527bde6d816796b2e.jpg"
  },
  {
    "title": "[건마] 몽마사지",
    "url": "https://dkxm8.com/profile_popup.php?idx=1194554&gubun=1",
    "description": "보령 대천",
    "hours": "pm 01~am 04",
    "phone": "010 6581 4686",
    "kakao_id": "",
    "telegram_id": "",
    "thumbnail": "https://dkxm8.com/data/file/main/1728182447_hAgtjRKf_faf214349a315d40584a73aa8c165c58aba8bb87.jpg"
  },
  {
    "title": "[오피스텔] 만남의광장",
    "url": "https://dkxm8.com/profile_popup.php?idx=1012096&gubun=1",
    "description": "보령 대천 청양 무창포",
    "hours": "PM 12:00~ AM 04:00",
    "phone": "010-9824-3677",
    "kakao_id": "",
    "telegram_id": "",
    "thumbnail": "https://dkxm8.com/data/file/main/1728182871_F3BlbM6D_c0e2d494e4522e0444d55820425aa283e116d0a2.jpg"
  },
  {
    "title": "[건마] 해운대퀄리티",
    "url": "https://dkxm8.com/profile_popup.php?idx=374859&gubun=1",
    "description": "부산 해운대",
    "hours": "24시간",
    "phone": "010-2790-8861",
    "kakao_id": "",
    "telegram_id": "",
    "thumbnail": "https://dkxm8.com/data/file/main/1728182447_B6NXh1aj_62adbd8f3029182b9e51c72f527d40842c54b5b3.jpg"
  },
  {
    "title": "[룸/풀사롱] 매직미러한복풀",
    "url": "https://dkxm8.com/profile_popup.php?idx=1173930&gubun=1",
    "description": "✨❣️서면 연산 해운대❣️✨",
    "hours": "PM6:00~AM6:00",
    "phone": "010-4867-0506",
    "kakao_id": "",
    "telegram_id": "",
    "thumbnail": "https://dkxm8.com/data/file/main/1728182871_dWzqv4cE_0b9d0438c450f094928753d4f0125987a11111a2.jpg"
  },
  {
    "title": "[룸/풀사롱] 컨셉미러하드풀",
    "url": "https://dkxm8.com/profile_popup.php?idx=1024170&gubun=1",
    "description": "연산,서면,해운대",
    "hours": "✌✅010-2272-2770✅✌",
    "phone": "010-2272-2770",
    "kakao_id": "",
    "telegram_id": "",
    "thumbnail": "https://dkxm8.com/data/file/main/1728182871_tZc48au5_a049a546de2a40b0d753a84c4482aa64ff1f9af0.jpg"
  },
  {
    "title": "[건마] 버블스웨디시",
    "url": "https://dkxm8.com/profile_popup.php?idx=1203947&gubun=1",
    "description": "충남 서산",
    "hours": "am 11:00~am 04:00",
    "phone": "010-6507-2849",
    "kakao_id": "",
    "telegram_id": "",
    "thumbnail": "https://dkxm8.com/data/file/main/2699961699_C81zNxkm_cd2e8e1f48623e799b8fd8ffea02685a84a83aee.jpg"
  },
  {
    "title": "[오피스텔] 꽃밭",
    "url": "https://dkxm8.com/profile_popup.php?idx=1197188&gubun=1",
    "description": "❤️일❤️대학생 영입!",
    "hours": "❤️전원한국매니저❤️",
    "phone": "010-2187-5888",
    "kakao_id": "",
    "telegram_id": "",
    "thumbnail": "https://dkxm8.com/data/file/main/1728182447_0atW1kRy_676a9f1fce1f6d63d0eb9f855e473e1d4dbdb784.jpg"
  },
  {
    "title": "[오피스텔] 스타벅스",
    "url": "https://dkxm8.com/profile_popup.php?idx=914845&gubun=1",
    "description": "호수공원근처",
    "hours": "PM 01:00 ~ AM 03:00",
    "phone": "010-2891-2885",
    "kakao_id": "",
    "telegram_id": "",
    "thumbnail": "https://dkxm8.com/data/file/main/1728182447_C7WV21IR_59ee6eccd87f5e80a6f06ea3c344909bd621d145.jpg"
  },
  {
    "title": "[건마] 신의손",
    "url": "https://dkxm8.com/profile_popup.php?idx=904631&gubun=1",
    "description": "세종시 도담동",
    "hours": "P.M 12시부터~~",
    "phone": "010-9843-2264",
    "kakao_id": "",
    "telegram_id": "",
    "thumbnail": "https://dkxm8.com/data/file/main/1728182871_vuSlaf1E_1b224b0f88596ca78079018ee9a9fb61c80dc062.jpg"
  },
  {
    "title": "[건마] 행복",
    "url": "https://dkxm8.com/profile_popup.php?idx=1272466&gubun=1",
    "description": "세종시 보람동",
    "hours": "24시간",
    "phone": "010-2182-8226",
    "kakao_id": "",
    "telegram_id": "",
    "thumbnail": "https://dkxm8.com/data/file/main/1332623107_KIWGv0F1_5f705a75fd8036df42cf1653a47b2003ba24b643.jpg"
  },
  {
    "title": "[건마] 슈퍼맨스웨디시",
    "url": "https://dkxm8.com/profile_popup.php?idx=859643&gubun=1",
    "description": "30분/10만/낮 이벤트!",
    "hours": "집에 가지말까~?^^*",
    "phone": "010-2281-3681",
    "kakao_id": "",
    "telegram_id": "",
    "thumbnail": "https://dkxm8.com/data/file/main/1728182871_ISUCAr9Z_d2a503413d79fd9347efaf007ade67faa559cd3f.jpg"
  },
  {
    "title": "[건마] 모카스파",
    "url": "https://dkxm8.com/profile_popup.php?idx=996112&gubun=1",
    "description": "송파구 방이동 먹자골목",
    "hours": "24시간 연중무휴",
    "phone": "010-6531-9531",
    "kakao_id": "",
    "telegram_id": "",
    "thumbnail": "https://dkxm8.com/data/file/main/1502831921_6JsOAf0h_a2713b7eff14071c3e6b8d82088793a0c8787dcd.jpg"
  },
  {
    "title": "[건마] 잠실인스타스파",
    "url": "https://dkxm8.com/profile_popup.php?idx=1299402&gubun=1",
    "description": "전원한국매니저",
    "hours": "AM 9:00 ~ AM 06:00",
    "phone": "010-4865-6011",
    "kakao_id": "",
    "telegram_id": "",
    "thumbnail": "https://dkxm8.com/data/file/main/1502831880_CU9hduRL_826c830ebf3554140dd12448e566661f3653c252.jpg"
  },
  {
    "title": "[휴게텔] 퍼스트",
    "url": "https://dkxm8.com/profile_popup.php?idx=1348710&gubun=1",
    "description": "❤️수원역 복귀 이벤트❤️",
    "hours": "13:00 ~ 05:00",
    "phone": "010-7926-6660",
    "kakao_id": "",
    "telegram_id": "",
    "thumbnail": "https://dkxm8.com/data/file/main/1332623112_v1Ld2te9_90d9e37dd23987c1bec940850081ef54d718e90b.jpg"
  },
  {
    "title": "[휴게텔] 새콤달콤",
    "url": "https://dkxm8.com/profile_popup.php?idx=154074&gubun=1",
    "description": "수원시청역 부근",
    "hours": "12:00 ~ 05:00",
    "phone": "010-8276-2111",
    "kakao_id": "",
    "telegram_id": "",
    "thumbnail": "https://dkxm8.com/data/file/main/2699961699_pI643sOl_7546cae07ddd6dfca19d5863b65c058630142420.jpg"
  },
  {
    "title": "[휴게텔] YSL생로랑",
    "url": "https://dkxm8.com/profile_popup.php?idx=1303475&gubun=1",
    "description": "⭐수원⭐와꾸파 사이즈 보장⭐",
    "hours": "PM 13:00 ~ AM 05:00",
    "phone": "010-5901-3587",
    "kakao_id": "",
    "telegram_id": "",
    "thumbnail": "https://dkxm8.com/data/file/main/1332623114_gzZhnP0X_ab042e13ccb8517e6a0b7448b9573ab64a0d9559.jpg"
  },
  {
    "title": "[휴게텔] 미끌미끌",
    "url": "https://dkxm8.com/profile_popup.php?idx=770014&gubun=1",
    "description": "아산시♥1등업소♥",
    "hours": "PM 12:00 ~ AM 05:00",
    "phone": "010-2352-6446",
    "kakao_id": "",
    "telegram_id": "",
    "thumbnail": "https://dkxm8.com/data/file/main/1728182871_gSiKzjV6_03bc8a9d45e69c54dbda8b9d245e6ad5c48db206.gif"
  },
  {
    "title": "[휴게텔] 샴푸",
    "url": "https://dkxm8.com/profile_popup.php?idx=719261&gubun=1",
    "description": "온양온천역/용화동",
    "hours": "1pm - 5am",
    "phone": "010-8157-9585",
    "kakao_id": "",
    "telegram_id": "",
    "thumbnail": "https://dkxm8.com/data/file/main/1728182871_dFa9w1kv_0986f1915d711498c4da8926ad076f67e37de88e.gif"
  },
  {
    "title": "[건마] 앵두출장",
    "url": "https://dkxm8.com/profile_popup.php?idx=649477&gubun=1",
    "description": "⭐⛔충청전지역큐트걸⭐⛔",
    "hours": "PM 24:00 ~ AM 24:00",
    "phone": "010-0000-0000",
    "kakao_id": "",
    "telegram_id": "",
    "thumbnail": "https://dkxm8.com/data/file/main/1728182447_fZBH3CDr_136e4acb84bdc44a8df5983e127e34bdf803bb65.jpg"
  },
  {
    "title": "[건마] 당산M스파",
    "url": "https://dkxm8.com/profile_popup.php?idx=649297&gubun=1",
    "description": "당산역 2번출구 전방.",
    "hours": "24시간 연중 무휴",
    "phone": "010-5736-8477",
    "kakao_id": "",
    "telegram_id": "",
    "thumbnail": "https://dkxm8.com/data/file/main/1728182871_2EcwBOAW_7911b4e5b9f53e3a92ec292450a2c381b9f55ecd.gif"
  },
  {
    "title": "[휴게텔] 크림",
    "url": "https://dkxm8.com/profile_popup.php?idx=648257&gubun=1",
    "description": "오창태국♥NF 수정.소다♥",
    "hours": "PM 2:00 ~ AM 04:00",
    "phone": "010-4408-6955",
    "kakao_id": "",
    "telegram_id": "",
    "thumbnail": "https://dkxm8.com/data/file/main/1728182447_7m5ctpHk_481c6374bd5cc5be4306e9e028fec1ef374a62c8.jpg"
  },
  {
    "title": "[휴게텔] 여기어때",
    "url": "https://dkxm8.com/profile_popup.php?idx=649607&gubun=1",
    "description": "오창 힐링업소",
    "hours": "PM 17:00 ~ AM 05:00",
    "phone": "010-6448-5992",
    "kakao_id": "",
    "telegram_id": "",
    "thumbnail": "https://dkxm8.com/data/file/main/1728182871_Xl3GKnfQ_8ca7690892422cb2f5ad8ab67c66644b43cde1ec.gif"
  },
  {
    "title": "[건마] 오렌지",
    "url": "https://dkxm8.com/profile_popup.php?idx=648825&gubun=1",
    "description": "✨청주시✨오창✨홈플러스✨",
    "hours": "24시간 연중무휴",
    "phone": "010-8069-7566",
    "kakao_id": "",
    "telegram_id": "",
    "thumbnail": "https://dkxm8.com/data/file/main/1728182447_QcnTeIFH_0a739c6f36625adfb98eaf3a587ca55cfd12462b.jpg"
  },
  {
    "title": "[건마] Dior디울",
    "url": "https://dkxm8.com/profile_popup.php?idx=1092135&gubun=1",
    "description": "경기도 용인시 보정동",
    "hours": "AM 11:00 ~ AM 05:00",
    "phone": "010-7678-2317",
    "kakao_id": "",
    "telegram_id": "",
    "thumbnail": "https://dkxm8.com/data/file/main/1728182871_0n1dfBXT_cf8f86e6c41d982a1fcaa806857170e53e0db117.jpg"
  },
  {
    "title": "[휴게텔] 레드",
    "url": "https://dkxm8.com/profile_popup.php?idx=1218150&gubun=1",
    "description": "용인시 수지구",
    "hours": "1pm ~ 5am",
    "phone": "010-2900-2776",
    "kakao_id": "",
    "telegram_id": "",
    "thumbnail": "https://dkxm8.com/data/file/main/1728182871_z8BAd5mj_212c43268d3f1b7f3cefcc4c74da25c11b2ea2c4.jpg"
  },
  {
    "title": "[휴게텔] 사우나",
    "url": "https://dkxm8.com/profile_popup.php?idx=1136928&gubun=1",
    "description": "용인 처인구",
    "hours": "PM 02:00 ~ AM 05:00",
    "phone": "010-8103-4691",
    "kakao_id": "",
    "telegram_id": "",
    "thumbnail": "https://dkxm8.com/data/file/main/1332623118_y78degXR_17aa918a6d7986fbd314d5a23d0da92a19e984e5.jpg"
  },
  {
    "title": "[건마] 꿀",
    "url": "https://dkxm8.com/profile_popup.php?idx=992414&gubun=1",
    "description": "음성,진천",
    "hours": "24시간",
    "phone": "010 2392 1978",
    "kakao_id": "",
    "telegram_id": "",
    "thumbnail": "https://dkxm8.com/data/file/main/1332623111_STkEXe58_fd7ed45bb7f0041e0ca53daa91c478d5f8b63352.jpg"
  },
  {
    "title": "[오피스텔] 파타야",
    "url": "https://dkxm8.com/profile_popup.php?idx=1045360&gubun=1",
    "description": "익산시 영등동부근",
    "hours": "오후1시~오전5시",
    "phone": "010-7902-7355",
    "kakao_id": "",
    "telegram_id": "",
    "thumbnail": "https://dkxm8.com/data/file/main/1332623111_xuW4sh5O_211e664bf3ab71b03d73187aef320b6f3abd0c20.jpg"
  },
  {
    "title": "[오피스텔] 썸",
    "url": "https://dkxm8.com/profile_popup.php?idx=1180827&gubun=1",
    "description": "익산시 영등동 부근",
    "hours": "PM 2:00 ~ AM 05:00",
    "phone": "010-3303-4759",
    "kakao_id": "",
    "telegram_id": "",
    "thumbnail": "https://dkxm8.com/data/file/main/1728182447_oFsyvQhd_e7a9c2aa593e739aac135d9bb7881a1769752b5f.jpg"
  },
  {
    "title": "[휴게텔] 복숭아",
    "url": "https://dkxm8.com/profile_popup.php?idx=649108&gubun=1",
    "description": "부평역도보5분거리(바베큐광장)",
    "hours": "PM 12:00 ~ AM 05:00",
    "phone": "010-8072-4895",
    "kakao_id": "",
    "telegram_id": "",
    "thumbnail": "https://dkxm8.com/data/file/main/1728182871_J42KRVG9_3e3c64cd9ef6fb8cec27354113d56ff931c3c443.jpg"
  },
  {
    "title": "[휴게텔] 자두",
    "url": "https://dkxm8.com/profile_popup.php?idx=1090724&gubun=1",
    "description": "부평구 바베큐광장",
    "hours": "PM 02:00 ~ AM 05:00",
    "phone": "010-5848-7600",
    "kakao_id": "",
    "telegram_id": "",
    "thumbnail": "https://dkxm8.com/data/file/main/1728182871_i5z06pf7_c01491d6cf4a45e2936498ba5ae331314b8e7000.jpg"
  },
  {
    "title": "[유흥주점] 송도여신바",
    "url": "https://dkxm8.com/profile_popup.php?idx=1112217&gubun=1",
    "description": "인천광역시 연수구 송도동",
    "hours": "PM7:00~AM4:00",
    "phone": "010-7646-4350",
    "kakao_id": "",
    "telegram_id": "",
    "thumbnail": "https://dkxm8.com/data/file/main/1728182447_FS1YqPmD_03cf9fb929f9fb5362a905bdbd6d496c5c97ccde.jpg"
  },
  {
    "title": "[건마] 디저트",
    "url": "https://dkxm8.com/profile_popup.php?idx=1200831&gubun=1",
    "description": "전북 전주",
    "hours": "PM 01:00 ~ AM 05:00",
    "phone": "010-9518-9959",
    "kakao_id": "",
    "telegram_id": "",
    "thumbnail": "https://dkxm8.com/data/file/main/1728182447_ogPTsa3x_da99640f14bd1be34ff786779da863a34b065a1f.jpg"
  },
  {
    "title": "[건마] 전주좋은느낌",
    "url": "https://dkxm8.com/profile_popup.php?idx=648495&gubun=1",
    "description": "전주혁신도시",
    "hours": "PM 14:00 ~ AM 05:00",
    "phone": "010-3209-8669",
    "kakao_id": "",
    "telegram_id": "",
    "thumbnail": "https://dkxm8.com/data/file/main/1728182871_MHnZNEw7_e3bb83413656954ac85dc916803bc2331367ca0f.gif"
  },
  {
    "title": "[건마] 제주24시출장",
    "url": "https://dkxm8.com/profile_popup.php?idx=1244187&gubun=1",
    "description": "제주도 전 지역",
    "hours": "24시간 영업",
    "phone": "010-2463-8594",
    "kakao_id": "",
    "telegram_id": "",
    "thumbnail": "https://dkxm8.com/data/file/main/1728182447_wO1R7Xfc_aa1bb1ab24a416c40b04491e07a112f89e5b34e6.jpg"
  },
  {
    "title": "[오피스텔] 제주 탕후루",
    "url": "https://dkxm8.com/profile_popup.php?idx=1272207&gubun=1",
    "description": "제주도연동",
    "hours": "pm 2:00 am 5:00",
    "phone": "010.8340.8962",
    "kakao_id": "",
    "telegram_id": "",
    "thumbnail": "https://dkxm8.com/data/file/main/1332623107_vtBwkEUx_efbaa660155f761ba4c7407f248b8179a630c79a.jpg"
  },
  {
    "title": "[오피스텔] 일프로",
    "url": "https://dkxm8.com/profile_popup.php?idx=648600&gubun=1",
    "description": "제주시 연동",
    "hours": "PM 12:00 ~ AM 05:00",
    "phone": "010-9769-6635",
    "kakao_id": "",
    "telegram_id": "",
    "thumbnail": "https://dkxm8.com/data/file/main/1728182871_pHRytDwj_f921aec04793d807cea44b183d031bd434dc9ee1.jpg"
  },
  {
    "title": "[건마] 꿀",
    "url": "https://dkxm8.com/profile_popup.php?idx=648229&gubun=1",
    "description": "진천,음성",
    "hours": "24시간",
    "phone": "010 8022 4898",
    "kakao_id": "",
    "telegram_id": "",
    "thumbnail": "https://dkxm8.com/data/file/main/1332623111_MbKdYkmQ_6ccc1705e9aeffe9177fddb46fd73e3252ad62fc.jpg"
  },
  {
    "title": "[휴게텔] 이자카야",
    "url": "https://dkxm8.com/profile_popup.php?idx=648232&gubun=1",
    "description": "음성진천이천오창청주충주천안",
    "hours": "PM 13:00~ AM 4:00",
    "phone": "010-6806-0955",
    "kakao_id": "",
    "telegram_id": "",
    "thumbnail": "https://dkxm8.com/data/file/main/1728182871_zdhF7lBu_714e65fa0449da1c8e46445e9199dae0315f9ba3.jpg"
  },
  {
    "title": "[오피스텔] 디올",
    "url": "https://dkxm8.com/profile_popup.php?idx=648427&gubun=1",
    "description": "[진천]❤️착한가격 디올❤️",
    "hours": "✳️전원 한국매니져✳️",
    "phone": "010-9119-1910",
    "kakao_id": "",
    "telegram_id": "",
    "thumbnail": "https://dkxm8.com/data/file/main/1728182871_EbzLviM8_588d6ca74b50c140f2ea8d80b3d4bfe1d9809fcd.gif"
  },
  {
    "title": "[휴게텔] 세븐일레븐",
    "url": "https://dkxm8.com/profile_popup.php?idx=1362220&gubun=1",
    "description": "❤️성정동,두정동휴게텔맛집❤️",
    "hours": "12시-5시",
    "phone": "010-2181-6527",
    "kakao_id": "",
    "telegram_id": "",
    "thumbnail": "https://dkxm8.com/data/file/main/2669311878_UzQldkOK_400b58ff93fd124b50243ae93a1e595dd550238a.jpg"
  },
  {
    "title": "[휴게텔] 1004",
    "url": "https://dkxm8.com/profile_popup.php?idx=648324&gubun=1",
    "description": "천안시 두정 성정동",
    "hours": "PM 01:00 ~ AM 04:00",
    "phone": "010-2180-6571",
    "kakao_id": "",
    "telegram_id": "",
    "thumbnail": "https://dkxm8.com/data/file/main/1728182871_amKLHUjd_a573475683f4791a5c17fa557067a6d72dfe8032.jpg"
  },
  {
    "title": "[휴게텔] 러브미",
    "url": "https://dkxm8.com/profile_popup.php?idx=648338&gubun=1",
    "description": "✨전국 1등✨베트남✨태국✨",
    "hours": "PM 12:00 ~ AM 04:00",
    "phone": "010-5670-6198",
    "kakao_id": "",
    "telegram_id": "",
    "thumbnail": "https://dkxm8.com/data/file/main/2699961636_hkMNBZIW_8f33f3241f8021685eb4c4f3658cc39320b90bd3.jpg"
  },
  {
    "title": "[건마] See,You",
    "url": "https://dkxm8.com/profile_popup.php?idx=424825&gubun=1",
    "description": "단체는❤️SEEYOU❤️",
    "hours": "일)✨️12시부터~~마감까지✨️",
    "phone": "010-8036-3121",
    "kakao_id": "",
    "telegram_id": "",
    "thumbnail": "https://dkxm8.com/data/file/main/1728182871_BWkY4QtN_65918a1ca15f37f0491dfa08e329cdbd8ecbfc6c.jpg"
  },
  {
    "title": "[휴게텔] 초콜릿",
    "url": "https://dkxm8.com/profile_popup.php?idx=986640&gubun=1",
    "description": "청주1등♥뉴페 지혜♥",
    "hours": "Pm.12:00~Am.05:00",
    "phone": "010-2336-2625",
    "kakao_id": "",
    "telegram_id": "",
    "thumbnail": "https://dkxm8.com/data/file/main/1728182447_ktoZi12P_eb44a1235b72c830177a0c85a46e8b2440f23f19.jpg"
  },
  {
    "title": "[휴게텔] 옹달샘",
    "url": "https://dkxm8.com/profile_popup.php?idx=969055&gubun=1",
    "description": "클릭⭕아로마⭕NF베네수엘라⭕️",
    "hours": "단체⭕️청주NO.1❤️ 풀옵션⭕️",
    "phone": "010-8341-2211",
    "kakao_id": "",
    "telegram_id": "",
    "thumbnail": "https://dkxm8.com/data/file/main/1728182871_8UqGeSaT_c985727b1c3f3b4e3f9d2a29158d11a64c7d1a1e.jpg"
  },
  {
    "title": "[휴게텔] 코인",
    "url": "https://dkxm8.com/profile_popup.php?idx=1299200&gubun=1",
    "description": "충주 신연수동 부근",
    "hours": "PM 01:00 ~ AM 04:00",
    "phone": "010-8435-4487",
    "kakao_id": "",
    "telegram_id": "",
    "thumbnail": "https://dkxm8.com/data/file/main/1502831880_BYxeolfw_fb427afaeda68c915cc3572999682c37ea732d8a.jpg"
  },
  {
    "title": "[휴게텔] 낙원",
    "url": "https://dkxm8.com/profile_popup.php?idx=989356&gubun=1",
    "description": "⏩❤️충주 신연수동❤️ (제천",
    "hours": "⏩ PM12:00~AM05:00",
    "phone": "⏩⏩010-5714-3585",
    "kakao_id": "",
    "telegram_id": "",
    "thumbnail": "https://dkxm8.com/data/file/main/1728182871_tIbdTru1_a1a1217d1c5402f9db9c67f271c5ccf2c164f2ec.jpg"
  },
  {
    "title": "[건마] 포텐",
    "url": "https://dkxm8.com/profile_popup.php?idx=1316038&gubun=1",
    "description": "충주 중앙탑면 인근",
    "hours": "PM 12:00 ~ AM 04:00",
    "phone": "010-5950-8651",
    "kakao_id": "",
    "telegram_id": "",
    "thumbnail": "https://dkxm8.com/data/file/main/2699961655_h5aytinz_f5953accc907ba9583b04987d190a9b5bd927b40.jpg"
  },
  {
    "title": "[건마] 외로움출장",
    "url": "https://dkxm8.com/profile_popup.php?idx=1292719&gubun=1",
    "description": "홍성/당진/천안/아산",
    "hours": "24시",
    "phone": "010 6828 8130",
    "kakao_id": "",
    "telegram_id": "",
    "thumbnail": "https://dkxm8.com/data/file/main/1502831950_GbwCjitY_9bb983c5a2c726e7c1179ac1bcd3762fb97b91dd.jpg"
  },
  {
    "title": "[휴게텔] 강남미시",
    "url": "https://dkxm8.com/profile_popup.php?idx=1305665&gubun=1",
    "description": "홍성군 홍성시장 근처",
    "hours": "❤️번호 변경❤️",
    "phone": "010-2135-3227",
    "kakao_id": "",
    "telegram_id": "",
    "thumbnail": "https://dkxm8.com/data/file/main/1502832116_fKaz2Xi4_262914096ea37386de63d64536a05e9ec31ed52d.jpg"
  }
]