[
  {
    "title": "[휴게텔] 세탁소",
    "url": "https://dkxm8.com/profile_popup.php?idx=648425&gubun=1",
    "description": "내상'0' 재방 '100%' NO.'1' 세 탁 소",
    "hours": "운영시간: 낮 1시부터 새벽 5시까지",
    "phone": "010-3440-8920",
    "thumbnail": "https://dkxm8.com/img/temp_thum.jpg",
    "kakao_id": "",
    "telegram_id": ""
  },
  {
    "title": "[유흥주점] 안석구실장",
    "url": "https://dkxm8.com/profile_popup.php?idx=648437&gubun=1",
    "description": "저 안석구한테 맡겨주시면 100% 내상 없습니다.",
    "hours": "",
    "phone": "010-7591-5950",
    "thumbnail": "https://dkxm8.com/img/temp_thum.jpg",
    "kakao_id": "",
    "telegram_id": ""
  },
  {
    "title": "[오피스텔] 유앤미",
    "url": "https://dkxm8.com/profile_popup.php?idx=648446&gubun=1",
    "description": "⭐⭐010-8296-4961⭐⭐",
    "hours": "",
    "phone": "010-8296-4961",
    "thumbnail": "https://dkxm8.com/img/temp_thum.jpg",
    "kakao_id": "",
    "telegram_id": ""
  },
  {
    "title": "[휴게텔] S스웨텔",
    "url": "https://dkxm8.com/profile_popup.php?idx=648579&gubun=1",
    "description": "비흡연 해주시면 더 사랑해요♥️",
    "hours": "",
    "phone": "010-4996-1945",
    "thumbnail": "https://dkxm8.com/img/temp_thum.jpg",
    "kakao_id": "",
    "telegram_id": "https://t.me/Scallcenter"
  },
  {
    "title": "[건마] 후궁",
    "url": "https://dkxm8.com/profile_popup.php?idx=1054093&gubun=1",
    "description": "⭐010-3948-5477⭐",
    "hours": "✔  주간 18시까지 1만원 할인 ✔",
    "phone": "010-3948-5477",
    "thumbnail": "https://dkxm8.com/img/temp_thum.jpg",
    "kakao_id": "",
    "telegram_id": ""
  },
  {
    "title": "[건마] S스웨디시",
    "url": "https://dkxm8.com/profile_popup.php?idx=531333&gubun=1",
    "description": "1인실 오피형 한국 하드 스웨디시",
    "hours": "",
    "phone": "010-4996-1945",
    "thumbnail": "https://dkxm8.com/img/temp_thum.jpg",
    "kakao_id": "",
    "telegram_id": "https://t.me/Scallcenter"
  },
  {
    "title": "[휴게텔] 굿나잇",
    "url": "https://dkxm8.com/profile_popup.php?idx=1303954&gubun=1",
    "description": "",
    "hours": "",
    "phone": "010-5922-7795",
    "thumbnail": "https://dkxm8.com/img/temp_thum.jpg",
    "kakao_id": "",
    "telegram_id": ""
  },
  {
    "title": "[안마] 스타",
    "url": "https://dkxm8.com/profile_popup.php?idx=349803&gubun=1",
    "description": "❤️NF맛집❤️24시영업❤️유성❤️카드가능❤️단체가능❤️재방1위❤️",
    "hours": "❤️NF맛집❤️24시영업❤️유성❤️카드가능❤️단체가능❤️재방1위❤️",
    "phone": "010-6587-2756",
    "thumbnail": "https://dkxm8.com/img/temp_thum.jpg",
    "kakao_id": "",
    "telegram_id": ""
  },
  {
    "title": "[오피] 초콜렛",
    "url": "https://dkxm8.com/profile_popup.php?idx=648690&gubun=1",
    "description": "진짜정직한가격 3만원할인받는 기분 가성비 짱!!대전 복합터미널인근!!",
    "hours": "",
    "phone": "010-8209-1852",
    "thumbnail": "https://dkxm8.com/img/temp_thum.jpg",
    "kakao_id": "",
    "telegram_id": ""
  },
  {
    "title": "[건마] 홍콩중국마사지",
    "url": "https://dkxm8.com/profile_popup.php?idx=943695&gubun=1",
    "description": "▓█▇▅▂❤️매력 뿜뿜 ❤️▂▅▇█▓ ⭐최상의 서비스와 마인드⭐️내상제",
    "hours": "",
    "phone": "010-2407-5643",
    "thumbnail": "https://dkxm8.com/img/temp_thum.jpg",
    "kakao_id": "",
    "telegram_id": ""
  },
  {
    "title": "[휴게텔] 라이프",
    "url": "https://dkxm8.com/profile_popup.php?idx=648459&gubun=1",
    "description": "❤️❤️010-3025-7913❤️",
    "hours": "",
    "phone": "010-3025-7913",
    "thumbnail": "https://dkxm8.com/img/temp_thum.jpg",
    "kakao_id": "",
    "telegram_id": ""
  },
  {
    "title": "[건마] 촉촉 1인샵",
    "url": "https://dkxm8.com/profile_popup.php?idx=1169466&gubun=1",
    "description": "",
    "hours": "",
    "phone": "010-6553-2560",
    "thumbnail": "https://dkxm8.com/img/temp_thum.jpg",
    "kakao_id": "",
    "telegram_id": ""
  },
  {
    "title": "[건마] 압구정스웨디시",
    "url": "https://dkxm8.com/profile_popup.php?idx=1108819&gubun=1",
    "description": "♥ 8월 23일 토요일 정상 영업 중 입니다 ♥",
    "hours": "",
    "phone": "010-6553-2560",
    "thumbnail": "https://dkxm8.com/img/temp_thum.jpg",
    "kakao_id": "",
    "telegram_id": ""
  },
  {
    "title": "[건마] 밀크밀크마사지",
    "url": "https://dkxm8.com/profile_popup.php?idx=1227811&gubun=1",
    "description": "❤️ 이쁜와꾸 ❤️내상제로❤️ 특급서비스❤️ 예약가능❤️",
    "hours": "",
    "phone": "010-2360-2687",
    "thumbnail": "https://dkxm8.com/img/temp_thum.jpg",
    "kakao_id": "",
    "telegram_id": ""
  },
  {
    "title": "[건마] 시녀1인샵",
    "url": "https://dkxm8.com/profile_popup.php?idx=1037922&gubun=1",
    "description": "❤️남의여자가 더맛있는법❤️주체할수없는 배덕감❤️그녀의스킬❤️",
    "hours": "❤단체•초객•새벽손님❤",
    "phone": "010-8405-5883",
    "thumbnail": "https://dkxm8.com/img/temp_thum.jpg",
    "kakao_id": "",
    "telegram_id": ""
  },
  {
    "title": "[건마] 포유1인샵",
    "url": "https://dkxm8.com/profile_popup.php?idx=1340215&gubun=1",
    "description": "♥민정♥ 12:00~01:00 [출근]",
    "hours": "24시간 시간상관없이 연락주세요 : )",
    "phone": "01082428555",
    "thumbnail": "https://dkxm8.com/img/temp_thum.jpg",
    "kakao_id": "",
    "telegram_id": ""
  },
  {
    "title": "[건마] X고트1인샵",
    "url": "https://dkxm8.com/profile_popup.php?idx=1203589&gubun=1",
    "description": "❤️남의여자판타지❤️배덕감에미칠것같다❤️목구멍깊숙히삼키기❤️",
    "hours": "⚜️단체•초객•새벽손님⚜️",
    "phone": "010-8405-5883",
    "thumbnail": "https://dkxm8.com/img/temp_thum.jpg",
    "kakao_id": "",
    "telegram_id": ""
  },
  {
    "title": "[건마] 버블스웨디시",
    "url": "https://dkxm8.com/profile_popup.php?idx=649342&gubun=1",
    "description": "둔산동 핫플에서 일할 매니저 연락 주세용 !!!❤️",
    "hours": "☀️단비 12:00~☀️",
    "phone": "010-8031-3663",
    "thumbnail": "https://dkxm8.com/img/temp_thum.jpg",
    "kakao_id": "",
    "telegram_id": ""
  },
  {
    "title": "[건마] 바디딸딸이",
    "url": "https://dkxm8.com/profile_popup.php?idx=648869&gubun=1",
    "description": "♥♥출근부^^NF슬림와꾸 미양 NF엔니.NF스타NF로즈.NF입국자미나.하니.제니.다나.",
    "hours": "",
    "phone": "010-2187-8473",
    "thumbnail": "https://dkxm8.com/img/temp_thum.jpg",
    "kakao_id": "",
    "telegram_id": ""
  },
  {
    "title": "[휴게텔] 우영미",
    "url": "https://dkxm8.com/profile_popup.php?idx=1322808&gubun=1",
    "description": "❤️010-7541-8368❤️",
    "hours": "",
    "phone": "010-7541-8368",
    "thumbnail": "https://dkxm8.com/img/temp_thum.jpg",
    "kakao_id": "",
    "telegram_id": ""
  },
  {
    "title": "[휴게텔] 콜라",
    "url": "https://dkxm8.com/profile_popup.php?idx=1357872&gubun=1",
    "description": "⭐대전⭐유성구⭐1인오피형⭐내상제로⭐와꾸1번⭐믿고방문해주세요⭐",
    "hours": "",
    "phone": "010-5926-3587",
    "thumbnail": "https://dkxm8.com/img/temp_thum.jpg",
    "kakao_id": "",
    "telegram_id": ""
  },
  {
    "title": "[건마] 버터스웨디시",
    "url": "https://dkxm8.com/profile_popup.php?idx=1260072&gubun=1",
    "description": "유성 봉명동 No1 한국 하드스웨디시 극강와꾸",
    "hours": "오전 11시 이후 순차적으로",
    "phone": "010-8244-5581",
    "thumbnail": "https://dkxm8.com/img/temp_thum.jpg",
    "kakao_id": "",
    "telegram_id": ""
  },
  {
    "title": "[휴게텔] S휴게텔",
    "url": "https://dkxm8.com/profile_popup.php?idx=1305149&gubun=1",
    "description": "비흡연 해주시면 더 사랑해요♥️",
    "hours": "",
    "phone": "010-4996-1945",
    "thumbnail": "https://dkxm8.com/img/temp_thum.jpg",
    "kakao_id": "",
    "telegram_id": "https://t.me/Scallcenter"
  },
  {
    "title": "[오피] 에스",
    "url": "https://dkxm8.com/profile_popup.php?idx=849130&gubun=1",
    "description": "✅✅ 가성비 1티어 대전맛집 ✅✅",
    "hours": "",
    "phone": "010-4996-1945",
    "thumbnail": "https://dkxm8.com/img/temp_thum.jpg",
    "kakao_id": "",
    "telegram_id": "https://t.me/Scallcenter"
  },
  {
    "title": "[오피] 유앤미",
    "url": "https://dkxm8.com/profile_popup.php?idx=648446&gubun=1",
    "description": "⭐⭐010-8296-4961⭐⭐",
    "hours": "",
    "phone": "010-8296-4961",
    "thumbnail": "https://dkxm8.com/img/temp_thum.jpg",
    "kakao_id": "",
    "telegram_id": ""
  },
  {
    "title": "[오피] 럭셔리백마",
    "url": "https://dkxm8.com/profile_popup.php?idx=648566&gubun=1",
    "description": "",
    "hours": "",
    "phone": "010-3974-5099",
    "thumbnail": "https://dkxm8.com/img/temp_thum.jpg",
    "kakao_id": "",
    "telegram_id": ""
  },
  {
    "title": "[건마] 비밀수업1인샵",
    "url": "https://dkxm8.com/profile_popup.php?idx=1084066&gubun=1",
    "description": "❤️최고 이쁜이들의 하드서비스❤️",
    "hours": "❤️다     희❤️ 16:00 ~ 02:00",
    "phone": "010-8327-5261",
    "thumbnail": "https://dkxm8.com/img/temp_thum.jpg",
    "kakao_id": "",
    "telegram_id": ""
  },
  {
    "title": "[건마] 플러팅1인샵",
    "url": "https://dkxm8.com/profile_popup.php?idx=1209261&gubun=1",
    "description": "❤️010-5619-5935❤️",
    "hours": "⭐다     연⭐ 오후04:00 ~ 새벽02:00",
    "phone": "010-5619-5935",
    "thumbnail": "https://dkxm8.com/img/temp_thum.jpg",
    "kakao_id": "",
    "telegram_id": ""
  },
  {
    "title": "[건마] 샤인스웨디시",
    "url": "https://dkxm8.com/profile_popup.php?idx=1107872&gubun=1",
    "description": "NF연지    14:00 ~ 03:00 <출근>",
    "hours": "24시간 시간상관없이 연락주세요 : )",
    "phone": "010-2317-5769",
    "thumbnail": "https://dkxm8.com/img/temp_thum.jpg",
    "kakao_id": "",
    "telegram_id": ""
  },
  {
    "title": "[휴게텔] 에이스",
    "url": "https://dkxm8.com/profile_popup.php?idx=648411&gubun=1",
    "description": "",
    "hours": "",
    "phone": "010-2463-6567",
    "thumbnail": "https://dkxm8.com/img/temp_thum.jpg",
    "kakao_id": "",
    "telegram_id": ""
  },
  {
    "title": "[건마] 에스1인샵",
    "url": "https://dkxm8.com/profile_popup.php?idx=648553&gubun=1",
    "description": "비흡연 해주시면 더 사랑해요♥️",
    "hours": "",
    "phone": "010-4996-1945",
    "thumbnail": "https://dkxm8.com/img/temp_thum.jpg",
    "kakao_id": "",
    "telegram_id": "https://t.me/Scallcenter"
  },
  {
    "title": "[건마] 데이트 1인샵",
    "url": "https://dkxm8.com/profile_popup.php?idx=1296559&gubun=1",
    "description": "전원 20대 한국매니저 1인1실 오피형",
    "hours": "정 원   12:00 ~  03:00",
    "phone": "010-4838-0594",
    "thumbnail": "https://dkxm8.com/img/temp_thum.jpg",
    "kakao_id": "",
    "telegram_id": ""
  },
  {
    "title": "[립카페] 요거트1인샵",
    "url": "https://dkxm8.com/profile_popup.php?idx=1194298&gubun=1",
    "description": "♥대흥동 20대 극하드 최고의마인드♥",
    "hours": "❤️정원❤️    ❤️12:00~03:00❤️",
    "phone": "010-4838-0594",
    "thumbnail": "https://dkxm8.com/img/temp_thum.jpg",
    "kakao_id": "",
    "telegram_id": ""
  },
  {
    "title": "[건마] 사이즈1인샵",
    "url": "https://dkxm8.com/profile_popup.php?idx=1242430&gubun=1",
    "description": "❤️010-4347-8706❤️",
    "hours": "PM08:00~AM03:00",
    "phone": "010-4347-8706",
    "thumbnail": "https://dkxm8.com/img/temp_thum.jpg",
    "kakao_id": "",
    "telegram_id": ""
  },
  {
    "title": "[립카페] 힐링캠핑",
    "url": "https://dkxm8.com/profile_popup.php?idx=649046&gubun=1",
    "description": "오류동 삼성 서비스센터 / 이벤트 릴레이 10만",
    "hours": "♡13:30~22:00 민",
    "phone": "",
    "thumbnail": "https://dkxm8.com/img/temp_thum.jpg",
    "kakao_id": "",
    "telegram_id": ""
  },
  {
    "title": "[건마] 구미호",
    "url": "https://dkxm8.com/profile_popup.php?idx=648679&gubun=1",
    "description": "❤️중리 New 두둥 등장❤️",
    "hours": "",
    "phone": "010-4099-3660",
    "thumbnail": "https://dkxm8.com/img/temp_thum.jpg",
    "kakao_id": "",
    "telegram_id": ""
  },
  {
    "title": "[건마] 밝혀줘",
    "url": "https://dkxm8.com/profile_popup.php?idx=694890&gubun=1",
    "description": "❤️ ﻿ 밝혀줘에서 새로운 공주님을 모십니다.  ❤️",
    "hours": "❤️ 김 라 희 ❤️        3 PM ~ ing",
    "phone": "010-5939-9609",
    "thumbnail": "https://dkxm8.com/img/temp_thum.jpg",
    "kakao_id": "",
    "telegram_id": ""
  },
  {
    "title": "[건마] IVE1인샵",
    "url": "https://dkxm8.com/profile_popup.php?idx=1234537&gubun=1",
    "description": "전원 20대~!와꾸족 강추 존예녀떳다♥",
    "hours": "오전 10시 30분부터 예약 받습니다.",
    "phone": "010-9829-5276",
    "thumbnail": "https://dkxm8.com/img/temp_thum.jpg",
    "kakao_id": "",
    "telegram_id": ""
  },
  {
    "title": "[립카페] 설레임1인샵",
    "url": "https://dkxm8.com/profile_popup.php?idx=1235993&gubun=1",
    "description": "",
    "hours": "15:00~22:00",
    "phone": "010-7421-4936",
    "thumbnail": "https://dkxm8.com/img/temp_thum.jpg",
    "kakao_id": "",
    "telegram_id": ""
  },
  {
    "title": "[트젠/리얼] 매운맛",
    "url": "https://dkxm8.com/profile_popup.php?idx=648377&gubun=1",
    "description": "",
    "hours": "★※★※12시부터영업★※★※",
    "phone": "010-7421-1643",
    "thumbnail": "https://dkxm8.com/img/temp_thum.jpg",
    "kakao_id": "",
    "telegram_id": ""
  }
]